id,name,lat,lon,address,city,zone,search_score,created_at,updated_at,nearest_metro_distance,metro_id
a003db43-e89d-4058-bd82-9d88172040db,AB Block,22.593313,88.3997852,"241, 1st Cross Road, Sector I, Bidhannagar - 700067, WB, India",Kolkata,CCU-E,100.53500063734282,2024-10-06 20:10:22.09416+00,2024-10-09 19:00:00.242+00,1.0825128708905674,e4f363f7-cb0b-49fa-bcf6-b8959c33ef53
d91a7a25-3978-44cf-a744-571183b85c4f,77 Palli,22.504271,88.367607,"Dhakuria, Kolkata - 700068, WB, India",Kolkata,CCU-S,39.07,2024-10-06 20:10:21.84047+00,2024-10-10 09:13:09.329768+00,2.28842880578895,a112df8b-2feb-4181-b07b-8656d6a63351
d788a3bd-7829-4446-b037-944fa5439975,UniWorld Puja pandal,22.561443,88.494453,"Uniworld City, Newtown, New Town, West Bengal 700135",Kolkata,CCU-N,98.74682316832306,2024-10-08 15:19:01.498894+00,2024-10-09 19:00:00.242+00,6.99448474851831,5a6b03f6-7801-4740-a9c0-5f81317e445d
f13dbdee-f984-43ef-83e7-2f3004db4b7c,4 No Milani,22.477933,88.37235,"Vidyasagar Park And Playground, Vidyasagar Colony, Naktala, Ward 100, Kolkata - 700047, WB, India",Kolkata,CCU-S,0.5,2024-10-06 20:10:21.220201+00,2024-10-10 07:36:55.210391+00,1.2774168328609974,4db37870-5612-4412-96e0-177887986262
7f2e7d90-77fc-41a5-974b-e3c2ab38cb2e,AA Block,22.5917995,88.39736,"AA Block, Bidhannagar - 700067, WB, India",Kolkata,CCU-E,98.55847157535739,2024-10-06 20:10:22.042173+00,2024-10-09 19:00:00.242+00,1.2008488347356983,e4f363f7-cb0b-49fa-bcf6-b8959c33ef53
b5b04ca9-6496-48b2-ae8e-3db01df02b51,74 Pally Sarbojanin Durgotsab Kidderpore,22.539748,88.32528,"5B, Monilal Banerjee Rd, Khidirpur, Kolkata, West Bengal 700023",Kolkata,CCU-S,98.9945998180543,2024-10-06 20:10:21.79744+00,2024-10-09 19:00:00.242+00,2.2552113521653308,e86fb29e-7d2c-457c-82d5-1783c667b846
9c1c2bc2-323f-40ba-b8ba-ca9f8e701ee9,"41 Pally Club, Haridevpur",22.482926,88.338411,"276, Mahatma Gandhi Rd, Haridevpur, Paschim Putiary, Kolkata, West Bengal 700082",Kolkata,CCU-S,3.5,2024-10-06 20:10:21.28961+00,2024-10-09 19:00:00.242+00,0.8093134960653167,00d7356c-82fe-4cc0-b357-817947673407
aa6caa16-85a2-4f68-bf49-f59dbabbffbe,Katjunagar Sarbojanin Durgotsab Samity,22.59704321,88.35789531,"102/2A Beniatola Street, Kolkata-700005, West Benga",Kolkata,CCU-S,100,2024-10-10 09:10:03.896046+00,,0.7669550076016056,4e9bfc76-4813-4e06-b306-bdfdd3df45a5
c5e8971d-23e9-48d9-ba7d-0a515f50cc6f,AG Block Durga Puja,22.598204,88.423222,"AG Block, Sector II, Salt Lake City, Bidhannagar, West Bengal 700091",Kolkata,CCU-E,1,2024-10-06 20:10:22.411882+00,2024-10-10 08:07:42.640857+00,1.1650606960060637,ec2f65d6-1fae-4116-bae4-f7b72c4d9399
590a10d7-c8d6-4829-a008-19715f7cab6a,14 ER Pally Sadharan Durgotsav,22.582049,88.382161,"237P/1A, Maniktala Main Rd, Manicktala, Narkeldanga, Kolkata, West Bengal 700054",Kolkata,CCU-C,99.65966231965201,2024-10-06 20:10:20.633552+00,2024-10-10 06:42:39.757436+00,1.381765390246022,3e146387-2437-4638-bc89-e88ea457a3a9
0ec3adba-ccb7-489e-b0d7-b62969077587,97 Palli Bharatmata Puja,22.486988,88.344527,"23 M . N . Sen Lane, MN Sen Ln, Kudghat, Tollygunge, Kolkata, West Bengal 700040",Kolkata,CCU-S,97.69499966357237,2024-10-06 20:10:21.995039+00,2024-10-09 19:00:00.242+00,0.6854214141338065,00d7356c-82fe-4cc0-b357-817947673407
df5cfed4-38f3-438a-9901-4c7d6634731e,Pansila Sarbojonin,22.7126148,88.3842798,"26, R N Avenue, Khardaha - 700117, WB, India",Kolkata,CCU-N,106.66665005997815,2024-10-06 20:10:51.971749+00,2024-10-10 09:08:16.278427+00,6.59342556302175,6c5c0678-590f-4aad-a523-f1b830d07ee6
592145df-2929-4b1a-a426-cf8923c9362e,4-Sight Prestige Cultural Association,22.463722,88.383518,"150, Garia Station Rd, Barhans, Garia, Kolkata, West Bengal 700084",Kolkata,CCU-S,100.62586745820644,2024-10-06 20:10:21.257417+00,2024-10-09 19:00:00.242+00,0.8742386905998484,3d094844-70ce-4bd2-bc01-67df8990dfcd
85f4ec52-92a3-4904-b60b-7490127ef751,22 Pally Sarodotsav,22.524482,88.347507,"Bakul Bagan, Bhowanipore, Kolkata, West Bengal 700025",Kolkata,CCU-S,93.5905585093565,2024-10-06 20:10:20.949439+00,2024-10-10 09:31:57.198391+00,0.10738509205267688,491e3fa0-696f-4194-b3c1-4c60a7e1f92d
d5549cca-8628-43dc-ac52-13af584ee36c,AC Block,22.5948385,88.4034229,"130, 1st Avenue, Sector I, Bidhannagar - 700064, WB, India",Kolkata,CCU-E,97.69499966357237,2024-10-06 20:10:22.192266+00,2024-10-09 19:00:00.242+00,0.9773870037512329,e4f363f7-cb0b-49fa-bcf6-b8959c33ef53
eb0db1f7-696d-40f6-a2eb-b2550b2195cb,AE Block,22.6008801,88.4119096,"Sector I, Bidhannagar - 700064, WB, India",Kolkata,CCU-E,99.05350813519583,2024-10-06 20:10:22.24449+00,2024-10-09 19:00:00.242+00,1.221620032137828,ec2f65d6-1fae-4116-bae4-f7b72c4d9399
c7342e18-dcb8-4704-a4c0-9754f6fe1772,70 Pally Sarbojanin Durga Puja [Kasba Anchalik Yubak Brinda],22.519275,88.373638,"287 B. B. Chatterjee Road ,Kolkata 700042",Kolkata,CCU-S,100.51162817276361,2024-10-06 20:10:21.700051+00,2024-10-09 19:00:00.242+00,2.8432021866838904,491e3fa0-696f-4194-b3c1-4c60a7e1f92d
0f2388c6-5304-49d1-89f9-86af3838daca,74 Pally,22.539438,88.325729,"Manali Banerjee Road, Ward 77, Kolkata - 700022, WB, India",Kolkata,CCU-S,97.4962451655392,2024-10-06 20:10:21.769084+00,2024-10-10 08:06:37.716644+00,2.2006358664882204,e86fb29e-7d2c-457c-82d5-1783c667b846
42e48d1b-7336-4a25-a84b-9d12e7ca1109,66 Pally Sarbojanin Durgostav Committee,22.518009,88.342777,"No. 14A, Nepal Bhattacharjee St, Dharamdas Lane, Anami Sangha, Kalighat, Kolkata, West Bengal 700026",Kolkata,CCU-S,25.07,2024-10-06 20:10:21.617631+00,2024-10-10 09:11:23.682754+00,0.3641060354069023,182e71b3-4c47-4401-97de-a2a53e3e69d5
3e138ae4-518c-49b1-afc4-4b60f6e3ce1c,95 Pally,22.507622,88.362953,"Jodhpur Park, Kolkata - 700068, WB, India",Kolkata,CCU-S,99.80237267790827,2024-10-06 20:10:21.905622+00,2024-10-10 06:59:25.430783+00,1.7872610286962125,a112df8b-2feb-4181-b07b-8656d6a63351
c82e857d-428c-4be2-a24d-b5e4650e87bb,AG Block,22.5995094,88.4240305,"Sector II, Bidhannagar - 700101, WB, India",Kolkata,CCU-E,97.83710306018571,2024-10-06 20:10:22.36561+00,2024-10-09 19:00:00.242+00,1.328853517529578,ec2f65d6-1fae-4116-bae4-f7b72c4d9399
f061da26-e705-4805-868e-98864db49e93,68 Pally,22.527443,88.346184,"Seagull, 31A, Shyama Prasad Mukherjee Road, Bhowanipore, Kolkata - 700025, WB, India",Kolkata,CCU-S,49.76,2024-10-06 20:10:21.643639+00,2024-10-10 06:36:41.458989+00,0.35509610669530783,491e3fa0-696f-4194-b3c1-4c60a7e1f92d
508d913f-ec90-4957-ae50-74bed5468c93,47 Pally Jubak Brinda Durga Puja,22.571486,88.358725,"90, Chittaranjan Ave, Calcutta Medical College, College Square, Kolkata-700012",Kolkata,CCU-C,100.53215856941056,2024-10-06 20:10:21.359492+00,2024-10-09 19:00:00.242+00,0.10960700607297322,92ddde6b-2c26-4ea1-89ba-4d29592bde1e
9d3fac88-c2e8-4d22-885e-82a690a43208,48 Block Swiss Park Durgotsav Committee,22.505339,88.348958,"48/48, Purna Chandra Mitra Ln, Swiss Park, Tollygunge, Kolkata, West Bengal 700033",Kolkata,CCU-S,96.78542909778086,2024-10-06 20:10:21.388403+00,2024-10-10 08:07:42.635943+00,0.40693052144858916,a112df8b-2feb-4181-b07b-8656d6a63351
4bcf60bc-e424-49d7-8beb-133704abdfd5,AE Part 1 Block Committee,22.598575,88.409369,"AE-059, AE Block, Sector 1, Salt Lake City, Kolkata- 700064",Kolkata,CCU-E,2.5,2024-10-06 20:10:22.29225+00,2024-10-09 19:00:00.242+00,1.108466817677361,ec2f65d6-1fae-4116-bae4-f7b72c4d9399
64b17038-c16f-4988-b506-84d900b4c9ae,95 Pally Jodhpur Park,22.508361,88.362913,"70A, Rahim Ostagar Rd, Jodhpur Park, Kolkata, West Bengal 700068",Kolkata,CCU-S,40.09,2024-10-06 20:10:21.949512+00,2024-10-10 08:46:46.342733+00,1.7870975067763966,a112df8b-2feb-4181-b07b-8656d6a63351
facf8726-c9e7-4d69-ae66-4013d72b6981,64 Pally Durgotsab Committee,22.520583,88.347567,"28C, Satish Mukherjee Road, Manoharpukur, Kalighat, Kolkata, West Bengal 700026",Kolkata,CCU-S,1,2024-10-06 20:10:21.592409+00,2024-10-09 19:00:00.242+00,0.423806741826533,491e3fa0-696f-4194-b3c1-4c60a7e1f92d
0634273c-8f41-49d8-bbdd-aa8323267489,61 Pally Sarbojanin Durgotsav Committee,22.550213,88.359659,"55 Mcleod Street,Kolkata-700017",Kolkata,CCU-C,9,2024-10-06 20:10:21.446964+00,2024-10-10 08:25:54.934365+00,1.1004469711861375,17454abd-2163-46cc-9124-1428650b03b8
0d555d3e-109c-44ac-a10a-73fdbe8dde30,64 Pally,22.526789,88.346512,"Seagull, 31A, Shyama Prasad Mukherjee Road, Ward 72, Kolkata - 700053, WB, India",Kolkata,CCU-S,50.44,2024-10-06 20:10:21.491811+00,2024-10-10 06:36:55.681363+00,0.28099989819369203,491e3fa0-696f-4194-b3c1-4c60a7e1f92d
164e65f8-1665-4eb7-ae76-c9382846918f,AB Block Abashik Sangha,22.593879,88.401903,"AB Block, Sector 1, Salt Lake City, Kolkata, West Bengal 700064",Kolkata,CCU-E,95.74667362597722,2024-10-06 20:10:22.152574+00,2024-10-10 09:05:40.604065+00,0.974325355180484,e4f363f7-cb0b-49fa-bcf6-b8959c33ef53
7d8b1549-56e2-44f3-97d7-15a2642c6054,Uttar Bantra Kumar Para Baroary Samity,22.597521,88.323886,"2, Sarat Dutta Lane, Kadamtala, Howrah-711101",Kolkata,HWH,97.71349346257193,2024-10-06 20:11:04.28912+00,2024-10-09 19:45:55.349807+00,1.9630847519652403,ba2d2d43-3fe7-4320-bb41-34bbc60b4420
73340440-b52a-4d47-ad9c-8568afb32e00,AL Block,22.5861982,88.4337248,"175, Bidhannagar - 700135, WB, India",Kolkata,CCU-E,98.00504343800147,2024-10-06 20:10:22.589909+00,2024-10-09 19:00:00.242+00,0.674559063005207,5a6b03f6-7801-4740-a9c0-5f81317e445d
62f2725a-395f-4fa6-81e8-694f233d8059,Adi Ballygunge Sarbojanin Durga Puja Parishad,22.516887,88.371526,"71, Ballygunge Gardens Kolkata 700029",Kolkata,CCU-S,97.53941712588559,2024-10-06 20:10:23.143061+00,2024-10-10 09:11:26.940071+00,2.6218119411812184,182e71b3-4c47-4401-97de-a2a53e3e69d5
34cb9073-9117-46e8-ba60-98180e91cd87,Akrur Dutta Dalanbari,22.565216,88.359976,"Akrur Dutta Ln, Chandni Chowk, Kolkata - 700013, WB, India",Kolkata,CCU-N,100.53160405978454,2024-10-06 20:10:23.995092+00,2024-10-09 19:00:00.242+00,0.6247696916790816,801d5775-edef-407f-84ab-153b44322842
7ce3822d-9cfc-4eca-b5e8-4b16b88736c4,Ambagan Durga Puja,22.590099,88.240726,"Kamrangu, Andul, Mahiari, West Bengal 711302",Kolkata,HWH,95.60578883236116,2024-10-06 20:10:24.290746+00,2024-10-10 09:31:57.202217+00,9.515596024301539,ba2d2d43-3fe7-4320-bb41-34bbc60b4420
2e047c56-7652-4597-8961-1cf6d758c6dd,Adi Babubagan,22.507975,88.370909,"52 Babubagan Lane, Dhakuria, Kolkata-700039",Kolkata,CCU-S,95.55370032565641,2024-10-06 20:10:23.045973+00,2024-10-10 09:31:57.204069+00,2.6053344380694043,a112df8b-2feb-4181-b07b-8656d6a63351
f138825a-94f5-45bb-8a23-e205c9b118f2,Subodh Park,22.495293,88.383435,"80-12, Kali Kumar Majumdar Rd, Mondal Para, Santoshpur, Kolkata, West Bengal 700075",Kolkata,CCU-S,98.2613462915295,2024-10-08 15:19:01.600655+00,2024-10-09 19:00:00.242+00,1.516689419715694,adb0c2c5-908b-4693-9855-72c4b5b2f462
09dce84e-3051-4aba-813c-6fad6c877653,Akra Sarbojanin Durgotsab Commitee,22.518211,88.238514,"Akra, Santoshpur, Kolkata, West Bengal 700140",Kolkata,CCU-S,98.44979967511351,2024-10-06 20:10:23.946663+00,2024-10-10 07:34:00.6805+00,8.377801111085066,6f4c7217-94dd-4db3-8cb5-3a85f1fdbac5
9903e7d4-9bbd-442c-a55c-0d63ecb89072,Ultadanga 13 & 14 Pally Durga Puja Committee,22.594518,88.383834,"24A,Ultadaga Main Road, Kolkata -700067",Kolkata,CCU-N,5,2024-10-06 20:11:03.795027+00,2024-10-09 19:00:00.242+00,1.2849150056328387,fb11daad-cbbf-4105-aba0-a487a4e885c5
65f7954c-3e93-4c5a-93bf-f591c40354b1,Adhar Laal Sen,22.596865,88.358915,"Golak Dutta Ln, Kashi Mitra, Kolkata - 700003, WB, India",Kolkata,CCU-N,100.36522184514502,2024-10-06 20:10:22.937042+00,2024-10-09 19:00:00.242+00,0.6605125098680753,4e9bfc76-4813-4e06-b306-bdfdd3df45a5
64d6c382-655c-4a31-a82b-d9c2333d0173,Adi Dakshin Kalikata Barowari Samittee,22.516787,88.343197,"Rash Behari, Sahanagar, Kalighat, Kolkata, West Bengal 700026",Kolkata,CCU-S,99.42784159067496,2024-10-06 20:10:23.209572+00,2024-10-10 05:31:14.166636+00,0.28861857604603386,182e71b3-4c47-4401-97de-a2a53e3e69d5
008af88e-62d6-4a21-bc92-02be3dacd705,Ajoynagar Sarbojanin Durgotsav Society,22.488852,88.396304,"Ajoy Nagar, Mukundapur, Kolkata, West Bengal 700075",Kolkata,CCU-S,18,2024-10-06 20:10:23.916494+00,2024-10-10 07:36:55.213141+00,0.6069273146266662,adb0c2c5-908b-4693-9855-72c4b5b2f462
b8e96804-8c9b-4587-a27d-a77ee0cfb24c,AH Block,22.5965541,88.4264543,"Sector II, Bidhannagar - 700101, WB, India",Kolkata,CCU-E,97.72083664477479,2024-10-06 20:10:22.463677+00,2024-10-09 19:00:00.242+00,1.2341775616539086,16187aae-7d9b-4140-a6bd-5cef445960b8
72ca3eac-0372-49d9-ac98-343244db9f5b,Agradoot Durga Mandir,22.56999,88.311158,"700,, Sarat Chatterjee Rd, Mandirtala, Naora, Shibpur, Howrah, West Bengal 711102",Kolkata,HWH,3.5,2024-10-06 20:10:23.501965+00,2024-10-09 19:00:00.242+00,2.609480693485798,ba2d2d43-3fe7-4320-bb41-34bbc60b4420
fb58063a-668e-41ed-a285-e55ce79fed51,Amarendra Bhavan,22.501385,88.318826,"4/1, Roy Bahadur Rd, Auddy",Kolkata,CCU-S,33.11,2024-10-06 20:10:24.250814+00,2024-10-10 09:26:25.192739+00,0.31216714470803836,6f4c7217-94dd-4db3-8cb5-3a85f1fdbac5
9aac52ee-2d34-454f-9bc1-a85720041c00,Agradut Udaya Sangha,22.533835,88.341946,"32B, D.N.Ghosh Road, Kolkata, West Bengal 700025",Kolkata,CCU-S,97.78542909778086,2024-10-06 20:10:23.595072+00,2024-10-09 19:00:00.242+00,0.43133814414382454,e86fb29e-7d2c-457c-82d5-1783c667b846
7a1d96a9-cd4c-46f7-8e38-aa4dd60aa050,Agarpara Youth Recreation Centre Durgotsab,22.684524,88.3726735,"Sodepur, Kamarhati - 700058, WB, India",Kolkata,CCU-N,1,2024-10-06 20:10:23.456096+00,2024-10-10 07:36:55.215386+00,3.5047005003657783,6c5c0678-590f-4aad-a523-f1b830d07ee6
4b5aa4a5-5670-4598-9c22-22eff1aaf3ad,Adarsha Sangha Sarbojanin,22.591235,88.300301,"Sastitala, 711104, Howrah Mangol Hat, Santragachi, Ramrajatala, Howrah, West Bengal 711104",Kolkata,HWH,98.43213503173871,2024-10-06 20:10:22.892591+00,2024-10-10 03:51:59.321009+00,3.510108826663906,ba2d2d43-3fe7-4320-bb41-34bbc60b4420
4131e228-7061-4bd5-a47e-007c4f725c7d,Abasarika Club,22.508394,88.369281,"Dakuria Kali Bari Lane, Dhakuria, Kolkata - 700031, WB, India",Kolkata,CCU-S,98.37942213605585,2024-10-06 20:10:22.744638+00,2024-10-10 09:13:09.333807+00,2.4402354096590924,a112df8b-2feb-4181-b07b-8656d6a63351
a9ef92ef-14fa-4a0a-9225-d1ab888cf0ec,Abasar Sarbojonin,22.527562,88.348897,"Rakhal Mukherjee Road, Ward 72, Kolkata - 700053, WB, India",Kolkata,CCU-S,8,2024-10-06 20:10:22.71125+00,2024-10-10 09:05:46.380098+00,0.4425151171292218,491e3fa0-696f-4194-b3c1-4c60a7e1f92d
890c8979-af8b-4931-a5b1-88c67071db08,Aaikatan Sarbojanin Durgotsab,22.474439,88.321434,"Dhar Para, Netaji Pally, Purba Barisha, Kolkata, West Bengal 700063",Kolkata,CCU-S,13,2024-10-06 20:10:22.68174+00,2024-10-09 19:00:00.242+00,1.1759211418303939,68356bfc-0e55-420a-b46e-7d39f376f90b
57e48039-b1aa-4357-9a95-4b2f78113ead,Ajeya Sanghati,22.480887,88.337692,"47, Mahatma Gandhi Rd, Haridevpur, Paschim Putiary, Kolkata, West Bengal 700082",Kolkata,CCU-S,91.91745607172524,2024-10-06 20:10:23.847173+00,2024-10-10 09:31:10.062066+00,0.8536629487889063,00d7356c-82fe-4cc0-b357-817947673407
f2c0ed6a-b036-46fc-b1d4-ea694dfdee4b,Acharya Prafulla Sangha,22.490906,88.313275,"P-7, Dr Akshay Kumar Paul Rd, Shimultala, Gopinagar, Behala, Kolkata, West Bengal 700034",Kolkata,CCU-S,100.43185866887211,2024-10-06 20:10:22.791508+00,2024-10-09 19:00:00.242+00,0.3758261115084252,548cfbb1-4ff7-4f9c-ab78-537c78920ee3
f0256aa0-f58e-455a-a5ce-a770cf60504b,Adi Tarapukur Durgotsav Samity,22.6859462,88.3867961,"Sodepur, Kamarhati - 700109, WB, India",Kolkata,CCU-N,97.58743328181986,2024-10-06 20:10:23.374846+00,2024-10-10 09:13:09.335829+00,3.6951669677587597,6c5c0678-590f-4aad-a523-f1b830d07ee6
2172a67f-8871-4a3c-a447-4b07a70356ab,Amardip Sangha,22.484463,88.330514,"192, Motilal Gupta Rd, Sodepur Kalitala, Sukanta Pally, Barisha, Kolkata, West Bengal 700082",Kolkata,CCU-S,100.5106145784948,2024-10-06 20:10:24.197702+00,2024-10-09 19:00:00.242+00,1.63765185079506,00d7356c-82fe-4cc0-b357-817947673407
ced80486-e650-4494-8b62-11e78612c771,AK Block,22.5891537,88.4313014,"Sector II, Bidhannagar - 700102, WB, India",Kolkata,CCU-E,98.79942178250981,2024-10-06 20:10:22.539903+00,2024-10-10 00:54:32.313152+00,0.8844308532670198,5a6b03f6-7801-4740-a9c0-5f81317e445d
2cafbd22-2533-4154-bc18-ca4ddd78df91,Agarpara Kalyan Samity Club,22.6840908,88.3831329,"Kamarhati - 700109, WB, India",Kolkata,CCU-N,64.89,2024-10-06 20:10:23.399717+00,2024-10-10 09:31:10.076048+00,3.426315266195111,6c5c0678-590f-4aad-a523-f1b830d07ee6
2a96f6a3-ef62-4d5c-9223-820aa6baf74a,Udayan Sangha,22.501814,88.387711,"Kasbah North, Kolkata - 700078, WB, India",Kolkata,CCU-S,100.66365748771369,2024-10-06 20:11:03.600026+00,2024-10-09 19:00:00.242+00,1.302716951906696,4584a420-4222-4f57-9280-2fa4df3c2ccd
8af1a003-dbb0-45a2-9327-164e5143670f,Adi Lake Palli Club,22.514823,88.349521,"Adi Lake Palli Club,, Lake Place Road, Kalighat, Kolkata, West Bengal 700029",Kolkata,CCU-S,3.5,2024-10-06 20:10:23.316575+00,2024-10-09 19:00:00.242+00,0.4146650742322824,182e71b3-4c47-4401-97de-a2a53e3e69d5
386dc009-aa82-4209-b02c-15abec655512,Ahiritola Jubak Brinda,22.5944,88.358788,"Nimu Gossain Lane, Shobha Bazar, Kolkata - 700003, WB, India",Kolkata,CCU-N,45.58,2024-10-06 20:10:23.644468+00,2024-10-10 08:25:50.349806+00,0.6911407779679439,4e9bfc76-4813-4e06-b306-bdfdd3df45a5
fc3a6a73-ed1d-4787-a87c-b0350f8ad021,AJ Block,22.5921092,88.4288779,"Sector II, Bidhannagar - 700101, WB, India",Kolkata,CCU-E,61.3,2024-10-06 20:10:22.507475+00,2024-10-09 19:44:23.523517+00,0.9846248338817105,16187aae-7d9b-4140-a6bd-5cef445960b8
b1486dfd-f38e-4b04-a97f-3b67b983f09f,Baghajatin Park Housing Society Puja Committee,22.47953,88.392807,"Krishak Pally, Pancha Sayar, Kolkata, West Bengal 700094",Kolkata,CCU-S,95.23098092765771,2024-10-06 20:10:26.057899+00,2024-10-10 09:31:57.208802+00,0.5641600870314003,adb0c2c5-908b-4693-9855-72c4b5b2f462
aaddbe70-dd4e-484b-bd59-7cb84546716a,Aswininagar Sarbojanin Durgotsav [Abhiyatrik Club],22.606977,88.43276,"Aswininagar, Baguiati, Kolkata, West Bengal 700159",Kolkata,CCU-E,4.5,2024-10-06 20:10:24.83861+00,2024-10-10 07:36:55.218493+00,2.546362823722421,ec2f65d6-1fae-4116-bae4-f7b72c4d9399
b23d87c4-79e3-45f0-935d-017f3c5d1e9b,BK Block,22.5876407,88.4288779,"Sector II, Bidhannagar - 700102, WB, India",Kolkata,CCU-E,99.56508036300383,2024-10-06 20:10:25.485046+00,2024-10-09 19:00:00.242+00,0.7097033983716213,5a6b03f6-7801-4740-a9c0-5f81317e445d
e810c1b2-5be8-4ad3-a97b-7f5acac0b122,Vivekananda Youth Club,22.458979,88.308177,"James Long Sarani, Mukund Das Colony, Thakur Pukur, Kolkata, West Bengal 700063",Kolkata,CCU-S,99.5465669211068,2024-10-06 20:11:04.75074+00,2024-10-10 07:30:35.171431+00,0.5908000159875783,c6045cd9-ca71-4480-a145-77cdde0e9afb
69afa956-fa85-4b88-a321-1c35adac2a06,Arunachal Sarbojanin Durgotsab Committee,22.692721,88.384381,"Arunachal, Sodepur, Khardaha, West Bengal 700110",Kolkata,CCU-N,100.56999081335105,2024-10-06 20:10:24.74958+00,2024-10-09 19:00:00.242+00,4.394447302695008,6c5c0678-590f-4aad-a523-f1b830d07ee6
e0c35d93-6247-4463-928f-d3d5d3dcf0ba,BG Block,22.5953985,88.4225156,"Sector II, Bidhannagar - 700101, WB, India",Kolkata,CCU-E,99.84179443168179,2024-10-06 20:10:25.389305+00,2024-10-09 19:00:00.242+00,0.8987167237958676,ec2f65d6-1fae-4116-bae4-f7b72c4d9399
d06427d7-e7a4-4cce-943e-04cbd9344877,Bakul Bagan Sarbojanin,22.52673,88.347397,"Bhowanipore, Kolkata - 700025, WB, India",Kolkata,CCU-S,97.37399552957207,2024-10-08 15:13:47.246777+00,2024-10-10 09:31:57.211478+00,0.2898437611515042,491e3fa0-696f-4194-b3c1-4c60a7e1f92d
4fd1e566-edb9-4038-9a2a-c24d819c1a65,Badan Chandra Roy Bari,22.575254,88.358339,"Colootola Street, Central Avenue 2, Kolkata - 700073, WB, India",Kolkata,CCU-N,95.61937977084115,2024-10-06 20:10:25.812511+00,2024-10-10 08:38:24.066888+00,0.3129810514812223,92ddde6b-2c26-4ea1-89ba-4d29592bde1e
8b981c67-ad9c-4267-a95e-4079d903df2f,Anupama Housing Complex,22.629539,88.432876,"Rajarhat Gopalpur, Bidhannagar - 700052, WB, India",Kolkata,CCU-N,100.66356241109413,2024-10-06 20:10:24.589971+00,2024-10-09 19:00:00.242+00,4.158226631934252,17b0160f-c962-437a-9fa6-19eb743dd271
c611442e-eeaa-4296-917a-89d1fb16f348,Trishakti Sangha Club,22.7028028,88.3943811,"Sodepur, Panihati - 700110, WB, India",Kolkata,CCU-N,95.51262412026513,2024-10-06 20:11:03.512965+00,2024-10-10 06:11:46.40956+00,5.705356043649518,6c5c0678-590f-4aad-a523-f1b830d07ee6
f6dcdf91-ce2a-4de2-b65c-a4d2bd5cbc86,Balak Samity Club,22.49636,88.383355,"Sitala Mandir Rd, Solak Pally, Santoshpur, Kolkata, West Bengal 700075",Kolkata,CCU-S,95.65624419176874,2024-10-08 15:19:01.75269+00,2024-10-10 03:51:59.323302+00,1.5738368812797505,4584a420-4222-4f57-9280-2fa4df3c2ccd
e9097f9c-2237-42b5-859d-d5965a79475a,BL Block Durga Puja,22.585153,88.430011,"BL Block,Sector-II, Salt Lake City, Kolkata, West Bengal 700091",Kolkata,CCU-E,0,2024-10-06 20:10:25.643455+00,2024-10-10 08:07:42.645129+00,0.4268743942877844,5a6b03f6-7801-4740-a9c0-5f81317e445d
8566762b-8746-44c1-96e4-9e12cff3988d,BD Block Sarbojanin Durgotsab,22.595025,88.407549,"BD Block, Sector 1, Salt Lake City, Kolkata, West Bengal 700064",Kolkata,CCU-E,99.6670241315112,2024-10-06 20:10:25.273595+00,2024-10-10 08:07:42.643029+00,0.8853009048370695,e4f363f7-cb0b-49fa-bcf6-b8959c33ef53
0619f8d1-ba95-4fea-b57c-554b308affc9,B. N. B. L. Netaji Sangha,22.661635,88.389285,"Nagendra Bhattacharjee Lane, Goyal Para, Belghoria , Kolkata 700056",Kolkata,CCU-N,98.73803859471423,2024-10-06 20:10:24.988155+00,2024-10-09 19:00:00.242+00,1.397830205223272,6c5c0678-590f-4aad-a523-f1b830d07ee6
19878e29-3be1-4899-ab9c-e7063e6664c4,Babubagan Club,22.507931,88.369024,"14, Babu Bagan Ln, Dhakuria, Babu Bagan, Selimpur, Kolkata, West Bengal 700031",Kolkata,CCU-S,95.74667362597722,2024-10-06 20:10:25.704683+00,2024-10-10 09:31:57.214101+00,2.411641070217189,a112df8b-2feb-4181-b07b-8656d6a63351
dc609239-1612-4888-b7d7-a9c20a1ddd9d,Kalipur Sporting Club(KSP),22.68485,88.278088,"Gobra, Kalipur, Dankuni, West Bengal 712708",Kolkata,Hoogly,97.94871881898018,2024-10-06 20:11:05.609983+00,2024-10-09 19:00:00.242+00,9.4337011577737,a43fc13b-5107-428b-a4fe-96ffb2c58f71
d1ea84aa-79ed-40f3-ae71-7814db02856f,Baghbazaar Haldarbari Durgapuja,22.603509,88.36674,"Bag Bazar, Kolkata - 700004, WB, India",Kolkata,CCU-N,54.26,2024-10-06 20:10:26.138827+00,2024-10-10 09:31:57.217696+00,0.6478956978876116,994d8f80-908e-4ea9-a33b-4f83326a0460
d5aee83d-8500-4f50-851c-3362c88a4bc6,United Club Nabalia Para,22.487417,88.319118,"8, Nabalia Para Rd, Barisha, Kolkata, West Bengal 700008",Kolkata,CCU-S,99.56159630061744,2024-10-06 20:11:04.20929+00,2024-10-10 09:05:40.608898+00,0.5849295835655891,548cfbb1-4ff7-4f9c-ab78-537c78920ee3
dc4b2ae5-01fe-4584-8b01-5cacf848eaec,Badamtala Ashar Sangha,22.517936,88.34375,"5, Nepal Bhattacharjee St, Kalighat, Kolkata, West Bengal 700026",Kolkata,CCU-S,142.69,2024-10-06 20:10:25.763244+00,2024-10-10 09:31:02.25527+00,0.2719218108048564,182e71b3-4c47-4401-97de-a2a53e3e69d5
22cec1d2-4b3f-46c4-b567-c1860e84c1b7,BH Block Society,22.593244,88.425314,"BH Block, Sector II, Salt Lake City, Kolkata, West Bengal 700091",Kolkata,CCU-E,2,2024-10-06 20:10:25.455145+00,2024-10-10 08:07:42.58815+00,0.8516793993519687,16187aae-7d9b-4140-a6bd-5cef445960b8
3a66baa6-12f8-4fc2-8582-32d352183beb,Baganbari Athletic Club,22.571163,88.395721,"73, Narkel Danga Main Road , Kolkata - 700054",Kolkata,CCU-E,95.57995185115873,2024-10-06 20:10:25.840355+00,2024-10-10 09:31:57.220524+00,0.5689317642557024,3e146387-2437-4638-bc89-e88ea457a3a9
6eb337d9-9d3f-40fc-b455-1123bc92e12d,Andul Dutta Chaudhury Bari Durga Puja,22.584944,88.232921,"Dutta Chaudhury Bari Ln, Andul, Argari, West Bengal 711302",Kolkata,HWH,100.53447258170158,2024-10-06 20:10:24.549219+00,2024-10-09 19:00:00.242+00,10.279591211577692,ba2d2d43-3fe7-4320-bb41-34bbc60b4420
fa16e159-def6-4555-98fc-cfe5f98b1302,BK Paul Park Sarbojanin Durgotsav,22.5958882,88.3596035,"19, BK Paul Avenue, Kolkata- 700005, West Bengal",Kolkata,CCU-N,97.70791815417358,2024-10-06 20:10:25.537126+00,2024-10-09 19:00:00.242+00,0.5834697443655468,4e9bfc76-4813-4e06-b306-bdfdd3df45a5
e63a1eb3-7ae3-486d-8c6a-dda87a1a797f,Amherst Sarbojanin Durgotsab,22.57877,88.369713,"50, Raja Ram Mohan Sarani, Machuabazar, Kolkata, West Bengal 700009",Kolkata,CCU-C,100.61198352530884,2024-10-06 20:10:24.340552+00,2024-10-09 19:00:00.242+00,0.8844241619067706,d9f16ea9-84fc-4a04-bb10-972f8ea6a81a
59048227-8b2d-44e5-bf76-da135493fa5e,BC Block,22.5929856,88.4043323,"225, 1st Avenue, Sector I, Bidhannagar - 700064, WB, India",Kolkata,CCU-E,0,2024-10-06 20:10:25.204818+00,2024-10-10 05:17:45.227552+00,0.7517387910702296,e4f363f7-cb0b-49fa-bcf6-b8959c33ef53
15148269-2251-4d7c-ae72-c5e247e6f297,Bagbadini Bayam Samity,22.584392,88.327829,"10, Lakshman Das Lane, Kadam Tala, Howrah, West Bengal 711101",Kolkata,HWH,92.53028876363993,2024-10-06 20:10:25.890325+00,2024-10-10 09:31:57.222858+00,0.5933509681238666,ba2d2d43-3fe7-4320-bb41-34bbc60b4420
27bfdb62-7f9c-4559-a310-3d507d5fa39d,BE Block,22.5979131,88.4131218,"393, Sector I, Kolkata - 700064, WB, India",Kolkata,CCU-E,97.86319841120016,2024-10-06 20:10:25.340981+00,2024-10-09 19:00:00.242+00,0.8695152668032949,ec2f65d6-1fae-4116-bae4-f7b72c4d9399
394128d6-4300-4218-ad88-6cbacb32c3a8,Bagbazar Sarbajanin Durgotsav,22.604635,88.366046,"Bagbazar St, Baghbazar, Kolkata, West Bengal 700003",Kolkata,CCU-N,81.12,2024-10-06 20:10:25.937491+00,2024-10-10 09:31:58.044215+00,0.7662710659768345,994d8f80-908e-4ea9-a33b-4f83326a0460
0bfed1f2-c2e2-4143-9ec3-6149171472e4,BD Block,22.5948864,88.4082726,"Sector I, Bidhannagar - 700064, WB, India",Kolkata,CCU-E,97.74667362597722,2024-10-06 20:10:25.253832+00,2024-10-09 19:00:00.242+00,0.8702142865348039,e4f363f7-cb0b-49fa-bcf6-b8959c33ef53
3f0ec47d-5547-43ad-ab17-fb4581839fa6,BA Block,22.585133,88.459621,"BA Block, Action Area I,New Town, West Bengal 700156",Kolkata,CCU-E,97.90169551319177,2024-10-06 20:10:25.01472+00,2024-10-09 19:00:00.242+00,3.088701359725908,5a6b03f6-7801-4740-a9c0-5f81317e445d
5709ea55-b6e9-45b5-a369-87d3a8afe1c2,Ananda Complex Residential Durga Puja Committee,22.616942,88.383574,"Ananda Complex, Nilmoni Dey Ln, Mitrabagan Basti, Paikpara, Kolkata, West Bengal 700002",Kolkata,CCU-N,2.51,2024-10-06 20:10:24.49279+00,2024-10-09 19:23:35.006531+00,1.0524630163889876,389a7dbb-ca50-4fec-9a3a-eb32caa250dd
b9386b18-82a7-4e04-aca1-71b26857e588,BL Block,22.5846852,88.4313014,"Sector V, Bidhannagar - 700102, WB, India",Kolkata,CCU-E,100.23916720257508,2024-10-06 20:10:25.607263+00,2024-10-09 19:00:00.242+00,0.4040514408433164,5a6b03f6-7801-4740-a9c0-5f81317e445d
478c199e-9878-4b63-835f-5f485d757690,Baghajatin Udayan Sangha,22.485561,88.371257,"A/86/1, Bijoygarh, Layalka, Jadavpur, Kolkata, West Bengal 700092",Kolkata,CCU-S,95.52010555092626,2024-10-06 20:10:26.09246+00,2024-10-10 09:31:57.206549+00,1.7120459658497622,4db37870-5612-4412-96e0-177887986262
75b55677-964b-4948-a23a-a373340a0fb2,BE (East) Puja Committee,22.597271,88.413822,"BE Block, Sector 1, Salt Lake City, Kolkata, West Bengal 700064",Kolkata,CCU-E,25.26,2024-10-06 20:10:25.309312+00,2024-10-10 08:16:02.440517+00,0.7816420171311123,ec2f65d6-1fae-4116-bae4-f7b72c4d9399
5ea678ce-7fc3-4865-b9c7-9ac9c8bf7eff,Azadgarh,22.484604,88.356171,"Minapara Road, Aswini Nagar, Kolkata - 700092, WB, India",Kolkata,CCU-S,1,2024-10-06 20:10:24.904282+00,2024-10-09 19:00:00.242+00,1.1201699873118118,00d7356c-82fe-4cc0-b357-817947673407
ed53d106-5a42-4cc5-99bc-1456031ec9c9,Bandhab Sammilani,22.507818,88.367661,"Maharaja Tagore Road, Dhakuria, Kolkata - 700031, WB, India",Kolkata,CCU-S,98.49413749216335,2024-10-06 20:10:27.295065+00,2024-10-09 19:00:00.242+00,2.2713048271161633,a112df8b-2feb-4181-b07b-8656d6a63351
d41cf830-5018-4c91-8c52-9bdb37687531,Baishnabghata Pashimpara Sarbojanin Durgotsab,22.470842,88.37186,"5/1, Baishnabghata Bye Lane, Naktala, Garia, Kolkata-700047",Kolkata,CCU-S,2.5,2024-10-06 20:10:26.48813+00,2024-10-09 19:00:00.242+00,1.1677706203807994,4db37870-5612-4412-96e0-177887986262
01fd522c-bca2-42b9-8df2-2bdf361c9b9b,"Balak Brinda Club (Prafulla Kanan, Kestopur)",22.602103,88.424894,"AC 62, Prafulla Kanan Rd, Rabindrapally, Kestopur, Kolkata, West Bengal 700101",Kolkata,CCU-E,100.16243136840387,2024-10-06 20:10:26.770053+00,2024-10-09 19:00:00.242+00,1.6099963530369192,ec2f65d6-1fae-4116-bae4-f7b72c4d9399
b37d037f-46b0-4213-8dd5-852acf4e1250,Balaka Abasan Puja Committee,22.574399,88.453674,"Balaka Abasan,CG Block, Action Area I, Newtown, Kolkata- 700156",Kolkata,CCU-E,99.65316935370224,2024-10-06 20:10:26.850667+00,2024-10-10 09:05:40.614189+00,2.566961877358688,5a6b03f6-7801-4740-a9c0-5f81317e445d
cae59324-fbce-4331-90cc-0861379a80a9,Baishnabghata Patuli Upanagori Sarbojanin Durgotsab Committee,22.473449,88.387067,"J 77 ,Baishnabghata Patuli Township, Kolkata 700094",Kolkata,CCU-S,87.84,2024-10-06 20:10:26.605674+00,2024-10-10 08:57:38.889405+00,0.9565246177255669,3d094844-70ce-4bd2-bc01-67df8990dfcd
768a91e9-c766-455c-a7bb-87fa0f5791ff,Bansdroni Sarbojaneen Durgotsav,22.474243,88.357882,"Hirendralal Sarkar Rd, Bansdroni Government Colony, Purba Putiary, Kolkata-700070",Kolkata,CCU-S,100.53522072476768,2024-10-06 20:10:27.890458+00,2024-10-09 19:00:00.242+00,0.3174402732760329,4db37870-5612-4412-96e0-177887986262
ee9e7a8c-e3ad-4b28-9f20-72d40f845571,Balak Sangha,22.7046903,88.3721592,"Sodepur, Khardaha - 700114, WB, India",Kolkata,CCU-N,98.42776992743003,2024-10-06 20:10:26.796124+00,2024-10-10 06:11:46.413544+00,5.705750978733856,a43fc13b-5107-428b-a4fe-96ffb2c58f71
70675d38-f7b8-490d-8498-5b51bed80912,Ballygunge Pally Sarbojanin Durgotsab Committee,22.526391,88.357686,"8B , Dover Road ,Kolkata-700026",Kolkata,CCU-S,97.5133159417827,2024-10-06 20:10:27.154678+00,2024-10-10 09:11:26.944362+00,1.1741791008861064,491e3fa0-696f-4194-b3c1-4c60a7e1f92d
f6d1b254-0dd8-4dda-b585-94da5188fa88,Baghbazar Sarbojonin Durga Puja,22.604776601128005,88.3659160434387,Sovabazar,Kolkata,Baghbazar,92.16305693549411,2024-10-06 20:10:26.339919+00,2024-10-10 09:31:57.228004+00,0.6635530463983124,994d8f80-908e-4ea9-a33b-4f83326a0460
b29e076c-2a8e-4f43-b66d-fbc1dba9f5c9,Baishnabghata Patuli Upanagari,22.471201,88.380142,"Baghajatin, Kolkata - 700086, WB, India",Kolkata,CCU-S,95.54850613274793,2024-10-06 20:10:26.542491+00,2024-10-10 09:31:57.230695+00,1.3195568817126542,3d094844-70ce-4bd2-bc01-67df8990dfcd
221a7f56-9516-40cc-b16b-82654104102c,Baghbazar Jagodharti,22.603493,88.371101,"Pasupati Bose Ln, Chitpur North, Kolkata - 700004, WB, India",Kolkata,CCU-N,92.45040963674633,2024-10-06 20:10:26.253853+00,2024-10-10 09:31:57.233146+00,0.28635454305118035,994d8f80-908e-4ea9-a33b-4f83326a0460
81cc2ffe-7f40-4f77-a226-285c6340944d,Bangur Avenue Protirodh Bahini,22.607826,88.409335,"Bangur Avenue, P-48, Block A, Kolkata, 700055",Kolkata,CCU-N,5,2024-10-06 20:10:27.636585+00,2024-10-09 19:00:00.242+00,2.0378900475557056,ec2f65d6-1fae-4116-bae4-f7b72c4d9399
a1bf6b5c-948b-49c5-b6ec-8472bddce584,Balia Baishakhi Sangha,22.465184,88.40057,"Garia Station Road, West Balia, Kolkata-700084",Kolkata,CCU-S,100.51643649884062,2024-10-06 20:10:26.938864+00,2024-10-09 19:00:00.242+00,0.7942742549754057,1d43be6c-48af-432b-bfdf-f1080fac51dc
d890cbb0-7036-4981-81f8-4de917801474,Banerjee Bagan Sarbojanin Durgotsab,22.608067,88.34801,"21, Banerjee Bagan Ln, Salkia, Howrah, West Bengal 711106",Kolkata,HWH,95.57615586325485,2024-10-06 20:10:27.443892+00,2024-10-10 09:31:57.225558+00,2.2218411442666977,4e9bfc76-4813-4e06-b306-bdfdd3df45a5
ec321024-cb48-4460-8cda-416bffbc0f44,Baghbazar Palli Puja O Pradarshani Durga Puja,22.602818,88.367354,"P/, 12, Bagbazar St, Bidhan Sarani, Baghbazar, Kolkata, West Bengal 700003",Kolkata,CCU-N,26.13,2024-10-06 20:10:26.287621+00,2024-10-10 09:31:57.235136+00,0.5625581338247285,994d8f80-908e-4ea9-a33b-4f83326a0460
271fc69b-d811-4972-8690-39e61449936d,Bakul Bagan Sarbojanin,22.52673,88.347397,"Bhowanipore, Kolkata - 700025, WB, India",Kolkata,CCU-S,93.33013078428264,2024-10-06 20:10:26.721218+00,2024-10-10 09:31:57.241835+00,0.2898437611515042,491e3fa0-696f-4194-b3c1-4c60a7e1f92d
c5a77d38-6d55-4904-987a-d86e4ca4b43b,Bantra Sammilani,22.597341,88.318765,"43, Chatterjee Para Ln, Tikiapara, Howrah, West Bengal 711101",Kolkata,HWH,99.54282620577624,2024-10-06 20:10:27.971317+00,2024-10-09 19:45:55.357453+00,2.246023509061919,ba2d2d43-3fe7-4320-bb41-34bbc60b4420
6f718877-9d5d-4abc-a3df-a6ea5ce3c12c,Barisha Club,22.481256,88.313214,"Santosh Roy Rd, Sakher Bazar, Purba Barisha, Kolkata, West Bengal 700008",Kolkata,CCU-S,94.67566891825894,2024-10-06 20:10:28.090045+00,2024-10-10 09:26:29.971693+00,0.6978667351116383,548cfbb1-4ff7-4f9c-ab78-537c78920ee3
be6b8fe8-ccd4-4b41-b5d3-5921ac79a3be,"Gurudas Park , Beleghata",22.570605,88.390307,"Suren Sarkar Rd, Jewish Graveyard, Phool Bagan, Beleghata, Kolkata-700010",Kolkata,CCU-E,98.52796264398556,2024-10-06 20:10:39.222845+00,2024-10-10 08:15:14.619171+00,0.1707037493616211,3e146387-2437-4638-bc89-e88ea457a3a9
0b790f42-470a-49e3-bff1-914aba0a2275,ITI More Durga Puja Ground,22.979598,88.438763,"I.T.I. Grounds, B-9, SH 1, B 9, Block B, Kalyani, West Bengal 741235",Kolkata,HWH,18.880000000000003,2024-10-08 15:19:01.82574+00,2024-10-10 08:30:56.739338+00,28.433524524796265,e08ec0e3-4a43-4b96-9b78-7c5d6dc9e413
4f726ee0-fc63-49a1-8c40-1d012a58bfdc,Bandhab Pathagar,22.7019734,88.3680975,"Sodepur, Khardaha - 700114, WB, India",Kolkata,CCU-N,97.67824634067044,2024-10-06 20:10:27.247482+00,2024-10-10 06:11:46.411843+00,5.35645826897361,a43fc13b-5107-428b-a4fe-96ffb2c58f71
e6a0990a-668a-4088-bcab-b427a6e63a83,Bani Mandir Durga Puja,22.6658251,88.3807199,"Bani Mandir Park, Baranagar - 700058, WB, India",Kolkata,CCU-N,98.72460336448897,2024-10-06 20:10:27.704549+00,2024-10-09 19:00:00.242+00,1.380337402083877,6c5c0678-590f-4aad-a523-f1b830d07ee6
72ccac7a-0425-4b94-999a-22eeaa5845b7,Bandhusree,22.493447,88.316485,"Behala, Kolkata - 700034, WB, India",Kolkata,CCU-S,98.26852626239665,2024-10-06 20:10:27.41137+00,2024-10-10 07:15:23.853408+00,0.6160742297711388,6f4c7217-94dd-4db3-8cb5-3a85f1fdbac5
f7a5a209-89c3-487c-af52-2ec7fa0d942e,Bantra Sarbojanin Durgotsav,22.5935,88.322085,"Kadamtala, Tikiapara, Howrah, West Bengal 711101",Kolkata,HWH,97.69050484376295,2024-10-06 20:10:27.999127+00,2024-10-10 03:51:59.327157+00,1.7000311197032236,ba2d2d43-3fe7-4320-bb41-34bbc60b4420
b3d47d9d-cf14-400e-bd5e-157adf6edf8e,Baishali Pally Adhibasi Brinda,22.509778,88.390372,"P.Majumdar Road, Baishali Pally, Kolkata-700078",Kolkata,CCU-S,100.6389690627914,2024-10-06 20:10:26.406125+00,2024-10-09 19:00:00.242+00,1.2013382775913968,fa6a52e4-311b-4436-a31c-b31e3033e72f
364a5af0-d902-4ebe-9b99-b143adaab301,Bangur Avenue C Block Sarbojanin Durgotsav,22.603711,88.4104167,"117/1, Block- C, Bangur Avenue, Kolkata- 700055, West Bengal",Kolkata,CCU-N,22.12,2024-10-06 20:10:27.567327+00,2024-10-10 03:12:29.269414+00,1.569163573330949,ec2f65d6-1fae-4116-bae4-f7b72c4d9399
a8f31174-17e7-4a07-a63f-9ec7d70ed9ba,Kankurgachi Mitali Sangha,22.5800474,88.3900123,"1214J, Maniktala Main Rd, Manicktala, Garpar, Kankurgachi, Kolkata, West Bengal 700054, India",Kolkata,CCU-N,100,2024-10-10 09:10:03.92328+00,,0.8796999188092294,3e146387-2437-4638-bc89-e88ea457a3a9
ea008e4d-c089-4839-9b8d-c3e6ad623572,Bangali Sangha,22.65379,88.431569,"Khalisha Kota, Birati, Kolkata, West Bengal 700134",Kolkata,CCU-N,99.35502570582811,2024-10-06 20:10:27.508679+00,2024-10-09 19:00:00.242+00,4.17119819127081,17b0160f-c962-437a-9fa6-19eb743dd271
271ca64f-d7d9-4e70-9938-2a731fb5d509,Bandhudal Sporting Club Durga Puja,22.633153,88.377695,"?Nainan Para, Baranagar, Kolkata, West Bengal 700036",Kolkata,CCU-N,15.5,2024-10-06 20:10:27.360081+00,2024-10-09 19:00:00.242+00,1.815414584195372,17b0160f-c962-437a-9fa6-19eb743dd271
87b0197d-631a-4e7b-9ff5-3c9b3a7bc165,Ballygunge Cultural Association,22.51614,88.355745,"Lake Terrace, Lake Terrace, Ballygunge, Kolkata, West Bengal 700029",Kolkata,CCU-S,29.21,2024-10-06 20:10:27.142773+00,2024-10-10 09:11:30.540812+00,1.0023035575426424,182e71b3-4c47-4401-97de-a2a53e3e69d5
5578e829-deb4-40a0-b597-83fd44917f46,Bally Jora-Aswathatala Sarbojonin,22.64695,88.341847,"78, Goswami Para Rd, Bally, Howrah, West Bengal 711201",Kolkata,HWH,98.62659865677901,2024-10-06 20:10:27.069456+00,2024-10-10 09:11:26.942474+00,2.376862720341558,a43fc13b-5107-428b-a4fe-96ffb2c58f71
1aa77ca6-b049-432b-9736-a248d3539ce8,Bansdroni Sammlita Sarbojanin Durgotsav Committee,22.473651,88.358048,"10, H.L. Sarkar Road, Bansdroni, Kolkata-700070",Kolkata,CCU-S,3,2024-10-06 20:10:27.847454+00,2024-10-09 19:00:00.242+00,0.290424530642947,4db37870-5612-4412-96e0-177887986262
983c19b2-4f8f-44f9-a398-cc75d2c47d29,Baishnab Ghata Jatra Suru,22.470576,88.377922,"101B, Raja Subodh Chandra Mallick Rd, Baishnabghata, Garia, Kolkata, West Bengal 700047",Kolkata,CCU-S,3.5,2024-10-06 20:10:26.443627+00,2024-10-09 19:00:00.242+00,1.5025692689905006,3d094844-70ce-4bd2-bc01-67df8990dfcd
2ff3cfc5-fab1-4251-ba84-a9bab7a6ecc5,Bangur Avenue Protirodh Bahini Sarbojanin Durgotsav,22.6069,88.409246,"P- 48, Bangur Avenue, Block- C, Bangur, Kolkata- 700055, West Bengal",Kolkata,CCU-N,2.5,2024-10-06 20:10:27.667423+00,2024-10-09 19:00:00.242+00,1.9435172250072403,ec2f65d6-1fae-4116-bae4-f7b72c4d9399
2c3338fd-e7e8-43f8-b5b9-c46f1badab00,Barisha Tarun Tirtha,22.476515,88.31823,"Kolkata - 700008, WB, India",Kolkata,CCU-S,100.60558413273948,2024-10-06 20:10:28.808989+00,2024-10-09 19:00:00.242+00,0.872621698447056,68356bfc-0e55-420a-b46e-7d39f376f90b
35a0d9f9-d716-41dc-9dfb-17ffc00e1e91,Behala Arounoday Samity,22.501411,88.301092,"Rabindra Nagar No 2, Rabindra Nagar, Behala, Kolkata, West Bengal 700060",Kolkata,CCU-S,98.43573756563597,2024-10-06 20:10:29.642952+00,2024-10-10 07:36:55.224033+00,1.6932503345226315,6f4c7217-94dd-4db3-8cb5-3a85f1fdbac5
ae23b80c-d029-44ba-b34c-9eddf4d4db8d,Baruipur Pragati Sangha,22.367221,88.43189,"Subuddhipur, Arup Bhadra Sarani, Baruipur, Kolkata, West Bengal 700144",Kolkata,CCU-S,100.64081307877572,2024-10-06 20:10:29.047792+00,2024-10-09 19:00:00.242+00,11.733147319360933,3d094844-70ce-4bd2-bc01-67df8990dfcd
559be899-98bf-4c40-bebd-6318cbcd04e0,Behala Club Sarbojanin Durgotsav Committee,22.504681,88.315704,"58/1/1, Banamali Naskar Road, Behala, Kolkata, West Bengal 700060",Kolkata,CCU-S,99.49951999853192,2024-10-06 20:10:29.840754+00,2024-10-09 19:10:37.413628+00,0.6318452226478124,531eec9f-a676-48b2-8054-619f8d764267
029ebad6-3d01-4d0c-b258-b61cc7347540,Basak Bagan Sarbojanin Durgotsab,22.612505,88.398161,"30/1-A, Basak Bagan, South Dum Dum, Kolkata, West Bengal 700048",Kolkata,CCU-N,94.62037150277702,2024-10-06 20:10:29.14577+00,2024-10-10 09:31:57.246691+00,1.1048056628087917,389a7dbb-ca50-4fec-9a3a-eb32caa250dd
fbd4ca10-3c31-4bcc-a692-6126264b90a5,Behala 11 Pally Durga Puja [11 Pally Youth Association],22.498462,88.321463,"69, Satyen Roy Rd, Indrajit Pally, Behala, Kolkata, West Bengal 700034",Kolkata,CCU-S,99.49877185546582,2024-10-06 20:10:29.46405+00,2024-10-09 19:10:37.415661+00,0.42530707783595356,6f4c7217-94dd-4db3-8cb5-3a85f1fdbac5
5355fbe9-2250-466c-84e9-e74f61fa5a46,Behala Adarsha Pally,22.499989,88.327632,"Behala, Kolkata - 700053, WB, India",Kolkata,CCU-S,99.39677408676864,2024-10-06 20:10:29.548221+00,2024-10-09 19:10:37.417859+00,1.0624302512224435,6f4c7217-94dd-4db3-8cb5-3a85f1fdbac5
5265f036-5d5c-46fc-99c9-6776590c0857,Batore 41 er Pally Durga Puja,22.577778,88.298761,"10/3, Baksara Rd, Betore, Baruipara, Ichapur, Howrah, West Bengal 711104",Kolkata,HWH,99.50562889714882,2024-10-06 20:10:29.265504+00,2024-10-10 08:35:43.087228+00,3.5459362098655487,ba2d2d43-3fe7-4320-bb41-34bbc60b4420
19804c2f-6809-4f2b-b6b0-3fe407447fb3,Behala Arcadia Sarbojanin,22.4942,88.315163,"Behala, Kolkata - 700034, WB, India",Kolkata,CCU-S,99.42126091185854,2024-10-06 20:10:29.596677+00,2024-10-09 19:10:37.420089+00,0.5719915496013376,6f4c7217-94dd-4db3-8cb5-3a85f1fdbac5
032b41e7-a770-461b-a81b-2e7702ed3dd5,Barisha Janakalyan Sangha Durgotsav Committee,22.484934,88.313014,"18, Diamond Harbour Rd, Behala Chowrasta, Barisha, Sakher Bazar, Paschim Barisha, Kolkata-700008",Kolkata,CCU-S,100.60911500339182,2024-10-06 20:10:28.105421+00,2024-10-09 19:00:00.242+00,0.29163947946760765,548cfbb1-4ff7-4f9c-ab78-537c78920ee3
8d57f859-e922-4120-8626-c519b37530d3,Behala 29 Palli,22.507343,88.322426,"Behala BalanAnda Brahmachari Hospital And Research Center, 151, Diamond Harbour Road, New Alipore, Kolkata - 700034, WB, India",Kolkata,CCU-S,99.49896530947244,2024-10-06 20:10:29.499248+00,2024-10-09 19:10:37.423+00,0.21208369346869332,531eec9f-a676-48b2-8054-619f8d764267
9bce167d-0baf-4c85-97bb-4a64a8992f1b,Barisha Shakti Sangha,22.474384,88.315862,"92, Vidyasagar Sarani, Nutan Pally, Purba Barisha, Kolkata, West Bengal 700008",Kolkata,CCU-S,99.50175000038496,2024-10-06 20:10:28.708778+00,2024-10-10 07:36:55.225961+00,0.6037718592295372,68356bfc-0e55-420a-b46e-7d39f376f90b
6eba1de1-883f-4379-a972-f2f878f680cc,Barun Sporting Club,22.6931176,88.3699894,"Sodepur, Kamarhati - 700058, WB, India",Kolkata,CCU-N,98.69452192196012,2024-10-06 20:10:29.097391+00,2024-10-10 06:11:46.42012+00,4.400120695130242,a43fc13b-5107-428b-a4fe-96ffb2c58f71
0b1a5f25-6cb1-4c56-99e8-3535d912d5da,Barisha Sabuj Sathi Club,22.47821,88.310753,"Kolkata - 700063, WB, India",Kolkata,CCU-S,100.60211978027552,2024-10-06 20:10:28.561518+00,2024-10-09 19:00:00.242+00,0.4077780061401555,68356bfc-0e55-420a-b46e-7d39f376f90b
a72281f1-220e-4a51-abd4-3c4642f99326,Barisha Tarun Tritha,22.484503,88.319269,"3, Kalipada Mukherjee Rd, Sakher Bazar, Barisha, Kolkata, West Bengal 700008",Kolkata,CCU-S,100.56838682411207,2024-10-06 20:10:28.868874+00,2024-10-09 19:00:00.242+00,0.6881837670428876,548cfbb1-4ff7-4f9c-ab78-537c78920ee3
80a21385-5a17-44be-abfd-4e731a600666,Barisha Sabeda Bagan Club,22.488243,88.316653,"25/A, Raja Rammohan Roy Rd, 18 Bigha, Muradpur, Barisha, Kolkata, West Bengal 700008",Kolkata,CCU-S,99.6195909696437,2024-10-06 20:10:28.538546+00,2024-10-10 05:17:45.233098+00,0.34091504020475266,548cfbb1-4ff7-4f9c-ab78-537c78920ee3
075362a7-eb00-4e2c-be54-0ac04f2086e2,Behala Buroshibtala Janakalyan Sangha Durga Puja,22.502507,88.332437,"Manmohan Banerjee Road, Buroshibtalla, Behala, Kolkata, West Bengal 700038",Kolkata,CCU-S,98.49877185546582,2024-10-06 20:10:29.74768+00,2024-10-10 08:47:26.086389+00,1.3724724202877425,531eec9f-a676-48b2-8054-619f8d764267
60ab7f0f-f1ba-4a79-a719-0bfc813c9d32,Barisha Yubak Brinda,22.486077,88.312052,"13, Biren Roy Rd W, Behala Chowrasta, Sakher Bazar, Paschim Barisha, Kolkata, West Bengal 700008",Kolkata,CCU-S,97.23085865371064,2024-10-06 20:10:29.012312+00,2024-10-10 08:35:43.085269+00,0.21446571812892432,548cfbb1-4ff7-4f9c-ab78-537c78920ee3
d5bc6a1b-f00f-452d-82de-1ad883bae145,Aikya Sammilani,22.504429,88.318611,"Behala BalanAnda Brahmachari Hospital And Research Center, 151, Diamond Harbour Road, New Alipore, Kolkata - 700034, WB, India",Kolkata,CCU-S,99.57628279907308,2024-10-06 20:10:23.80639+00,2024-10-09 19:10:37.433182+00,0.46128803940251284,531eec9f-a676-48b2-8054-619f8d764267
c644810c-3316-487d-b340-e280268428ab,Rashmoni Bagan,22.493865,88.383446,"Rani Rashmoni Bagan Path, Rashmoni Bagan, Rani Rashmoni Bagan, Santoshpur, Kolkata, West Bengal 700075",Kolkata,CCU-S,95.62360994772779,2024-10-08 15:19:01.841948+00,2024-10-10 09:31:57.244025+00,1.3949354138511312,adb0c2c5-908b-4693-9855-72c4b5b2f462
dd459360-0e7a-4798-a22d-7c8d19dad33b,Beadon Street Sarbojanin,22.58916,88.368284,"Shobha Bazar East, Kolkata - 700003, WB, India",Kolkata,CCU-N,99.6217318294603,2024-10-06 20:10:29.36044+00,2024-10-09 19:45:55.368367+00,0.5791521530556605,ad97440c-ef55-499a-bdb7-12bf12f32786
52cd58ae-66b0-4e0a-be5f-cc9a6eb0b513,Barisha Saterpalli Sammilani Durga Puja,22.479781,88.304041,"12/12, Sashan Kalitala Road, Behala, Kolkata-700008",Kolkata,CCU-S,100.58614654410643,2024-10-06 20:10:28.644493+00,2024-10-09 19:00:00.242+00,0.8391861344787075,68356bfc-0e55-420a-b46e-7d39f376f90b
69312a03-40e2-4797-94fb-65c2e3c00fec,Barisha Udayan Pally Sabojanin Durga Puja,22.475241,88.309527,"Ward No.125, Diamond Harbour Rd, Udayan Pally, Barisha, Kolkata, West Bengal 700008",Kolkata,CCU-S,99.61198352530884,2024-10-06 20:10:28.912809+00,2024-10-10 05:17:45.230064+00,0.0847371609267533,68356bfc-0e55-420a-b46e-7d39f376f90b
2c8e09f4-6ae4-4338-9d70-e84b45d79d34,Barisha Players Corner,22.486588,88.312614,"Behala Chowrashta, Biren Roy Road West, Kolkata - 700034, WB, India",Kolkata,CCU-S,99.42103982156526,2024-10-06 20:10:28.456029+00,2024-10-09 19:10:37.411431+00,0.13382140071544002,548cfbb1-4ff7-4f9c-ab78-537c78920ee3
90d5278c-f98c-4783-a5b7-12cf276ffd0e,Barisha Milan Mandir,22.487279,88.313958,"4, Biren Roy Rd, Behala Chowrasta, Bata Colony, Barisha, Kolkata, West Bengal 700008",Kolkata,CCU-S,99.27183062635632,2024-10-06 20:10:28.245363+00,2024-10-09 19:00:00.242+00,0.06132084372367005,548cfbb1-4ff7-4f9c-ab78-537c78920ee3
e8972279-908d-4e8a-9738-2e1d9056a6e2,Behala Club,22.505381,88.314308,"Behala Club, Banamali Naskar Road, Behala, Kolkata - 700060, WB, India",Kolkata,CCU-S,0,2024-10-06 20:10:29.801279+00,2024-10-09 19:10:37.364679+00,0.7132337359734036,531eec9f-a676-48b2-8054-619f8d764267
8ad1750a-1f5c-49a8-baff-d5a2c126e723,Barisha Youth Club,22.478965,88.30259,"19, Srikrishna Pally, Paschim Barisha, Kolkata, West Bengal 700063",Kolkata,CCU-S,100.58138161910257,2024-10-06 20:10:28.946645+00,2024-10-09 19:00:00.242+00,0.9014775042468209,68356bfc-0e55-420a-b46e-7d39f376f90b
cc469c85-da33-4635-a654-468e4c2ca8c7,Lake Town Sporting Club,22.6043304,88.4017368,"Block A, Lake Town, South Dumdum, West Bengal 700089, India",Kolkata,CCU-N,100,2024-10-10 09:10:03.957187+00,,1.5841898137954875,fb11daad-cbbf-4105-aba0-a487a4e885c5
c0dbe93e-9d2e-4e7e-93f5-d7d04554d321,Batanagar Newland Puja Committee,22.505262,88.22905,"Das Para, Maheshtala, West Bengal 700140",Kolkata,CCU-S,99.66418554335495,2024-10-06 20:10:29.205974+00,2024-10-10 07:36:55.220293+00,8.889687752076174,548cfbb1-4ff7-4f9c-ab78-537c78920ee3
0f9fd8f5-8d00-4da3-a2b7-109766bf2e8e,Beadon Street Sarbojanin Durgotsab,22.589569,88.366479,"62/5, Abhedananda Rd, Manicktala, Darjipara, Kolkata, West Bengal 700006",Kolkata,CCU-N,99.69812445585738,2024-10-06 20:10:29.40404+00,2024-10-09 19:45:55.365078+00,0.44082581106582086,ad97440c-ef55-499a-bdb7-12bf12f32786
79fef451-5a81-4a6f-9a09-b86b6bca2b17,Barisha Maitree Sangha Durgotsab,22.484116,88.31754,"Nabalia Para Rd, Barisha, Kolkata, West Bengal 700008",Kolkata,CCU-S,99.58341620362269,2024-10-06 20:10:28.215053+00,2024-10-10 09:05:40.616637+00,0.5680525296073186,548cfbb1-4ff7-4f9c-ab78-537c78920ee3
db97d4de-384a-415a-acff-844742dc3f9c,Bazar Para Sarbojanin Durgapuja,22.7079714,88.3657954,"Sodepur, Khardaha - 700115, WB, India",Kolkata,CCU-N,98.54895260719213,2024-10-06 20:10:29.314747+00,2024-10-10 06:11:46.418154+00,6.0083383945550315,a43fc13b-5107-428b-a4fe-96ffb2c58f71
bfd4f017-342f-4313-852b-0fa41511dbef,Barisha Milani Sangha Durga Puja,22.477121,88.308909,"177, Narayan Roy Rd, Sakher Bazar, Paschim Barisha, Kolkata, West Bengal 700063",Kolkata,CCU-S,2.5,2024-10-06 20:10:28.294121+00,2024-10-09 19:00:00.242+00,0.30042688316437444,68356bfc-0e55-420a-b46e-7d39f376f90b
9d4a4d25-aa2c-4335-94ee-5c25c3e0099b,Barisha Nabin Sangha,22.483312,88.311062,"Sakher Bazar, Paschim Barisha, Kolkata, West Bengal 700008",Kolkata,CCU-S,0,2024-10-06 20:10:28.345769+00,2024-10-10 09:31:31.513517+00,0.5280791683049118,548cfbb1-4ff7-4f9c-ab78-537c78920ee3
beb6de50-f35d-43cb-956d-9229a7654b96,Behala Sanjib Palli,22.487004,88.309076,"Ho Chi Minh Sarani, Sanjib Pally, Behala, Kolkata, West Bengal 700034",Kolkata,CCU-S,99.57852722827143,2024-10-06 20:10:30.265762+00,2024-10-09 19:10:37.437548+00,0.4507169099696884,548cfbb1-4ff7-4f9c-ab78-537c78920ee3
9acea506-f084-45b5-a7f0-8e7333fd47bd,Beliaghata 33 Pally Adhibasibrindo Sarbojanin Durgotsav,22.5687627,88.3914276,"94, Hem Chandra Naskar Road, Subhas Sarobar Park, Phool Bagan, Beleghata, Kolkata- 700010, West Bengal",Kolkata,CCU-E,100.47611410058678,2024-10-06 20:10:31.015307+00,2024-10-09 19:00:00.242+00,0.39353030292478985,3e146387-2437-4638-bc89-e88ea457a3a9
143f215a-fe04-4be9-98f1-2eee8877f1fa,Behala Youngmens Association,22.506932,88.32487,"69, Joykrishna Paul Rd, Sahapur, New Alipore, Kolkata, West Bengal 700038",Kolkata,CCU-S,99.49863367403252,2024-10-06 20:10:30.396201+00,2024-10-09 19:10:37.43965+00,0.46319376208560414,531eec9f-a676-48b2-8054-619f8d764267
f0ead861-141d-4f5a-aa81-154601e3ad75,Bhowanipore Mitra Bari Durga Puja,22.532572,88.349327,"13, Paddapukur Road, Bhowanipore, Kolkata 700020.",Kolkata,CCU-S,100.66253527311453,2024-10-06 20:10:31.695549+00,2024-10-09 19:00:00.242+00,0.3409875237492138,e86fb29e-7d2c-457c-82d5-1783c667b846
c84a7495-215d-47f9-9c7f-67c71e8f1b12,Behala Trishakti Sangha,22.498367,88.318985,"Nafar Chandra Das Rd, Auddy Bagan Basti, Behala, Kolkata, West Bengal 700034",Kolkata,CCU-S,95.41350311833082,2024-10-06 20:10:30.503231+00,2024-10-10 09:16:08.629392+00,0.1788298253141076,6f4c7217-94dd-4db3-8cb5-3a85f1fdbac5
3fbc5488-5242-4acb-a760-f076077918bd,Bengal Boys Training Association,22.518345,88.341363,"Kalighat Rd, Anami Sangha, Kalighat, Kolkata, West Bengal 700026",Kolkata,CCU-S,99.43843934768853,2024-10-06 20:10:31.186102+00,2024-10-10 02:04:01.91257+00,0.5124423943197979,182e71b3-4c47-4401-97de-a2a53e3e69d5
95982441-5d8e-4b61-ae87-b9e68483be4f,Bejoypur Sarbojanin Durga Puja,22.694359,88.391579,"A/49, Anand Loke Rd, H B Town, Sodepur, Barrackpore, West Bengal 700114",Kolkata,CCU-N,100.6419352933749,2024-10-06 20:10:30.481576+00,2024-10-09 19:00:00.242+00,4.723554719812861,6c5c0678-590f-4aad-a523-f1b830d07ee6
e26f8b4b-4363-4c2f-b4e6-38825793df6b,Bharat Mata,22.488014,88.36248,"Bijoygarh Math, Arabinda Nagar, Kolkata - 700084, WB, India",Kolkata,CCU-S,60.99,2024-10-06 20:10:31.516128+00,2024-10-10 07:42:55.835862+00,1.6200074221456442,4db37870-5612-4412-96e0-177887986262
2ff4309f-b483-41d2-aaf9-33323e646d9b,Beleghata Santi Sangha,22.561941,88.391229,"26/H/4, Barwaritala Rd, Kulia, Beleghata, Kolkata, West Bengal 700010",Kolkata,CCU-C,100.61645825261965,2024-10-06 20:10:30.657876+00,2024-10-09 19:00:00.242+00,1.138239750046196,3e146387-2437-4638-bc89-e88ea457a3a9
3ce50d85-184d-4548-94e8-5b76dcaa1e3f,Beliaghata Shibtala Adhibasi Brinda,22.564395,88.377405,"Shibtala Ln, Seal Lane, Tangra, Kolkata-700015",Kolkata,CCU-C,95.02999385970062,2024-10-06 20:10:31.042251+00,2024-10-10 07:39:13.759101+00,0.6824859282030489,49b54ead-fc73-40d3-8a07-616e58170615
b3b2f811-0537-4db2-b1ce-ffe328ee9fd7,Behala Sree Sangha,22.497669,88.320183,"Behala, Kolkata - 700034, WB, India",Kolkata,CCU-S,97.47508393058274,2024-10-06 20:10:30.336262+00,2024-10-10 07:15:23.856077+00,0.32263749281697773,6f4c7217-94dd-4db3-8cb5-3a85f1fdbac5
c9283746-60f8-4a02-bf8d-0b9993fde16f,Bharatiya Tarun Sangha,22.588852,88.36371,"9B Ashutosh Dey Lane,Near Sekar Bhawan Kolkata -700006",Kolkata,CCU-N,4,2024-10-06 20:10:31.561988+00,2024-10-09 19:00:00.242+00,0.2006388817194528,ad97440c-ef55-499a-bdb7-12bf12f32786
2c2ffbbd-4b27-49c5-bb2f-27fa7a2fe50e,Behala Sangathani Durga Puja Committee,22.496608,88.307447,"P/149, B G Press Colony, Behala, Kolkata, West Bengal 700034",Kolkata,CCU-S,99.50101628466415,2024-10-06 20:10:30.232184+00,2024-10-09 19:10:37.447323+00,1.0499833896146782,6f4c7217-94dd-4db3-8cb5-3a85f1fdbac5
1fa131c1-05c6-4f91-a57e-441db88f8d79,Beltala Shakti Sangha,22.5256,88.351311,"Beltala Rd, Bakul Bagan, Bhowanipore, Kolkata, West Bengal 700026",Kolkata,CCU-S,98.14096139660475,2024-10-06 20:10:31.144382+00,2024-10-10 03:51:59.33244+00,0.5171424908517726,491e3fa0-696f-4194-b3c1-4c60a7e1f92d
adc6d7fa-0e40-4f9f-841f-d3d2b5ff7bb8,Maniktala CIT Pally Scheme VIM,22.57679495,88.38996514,P 152 C.I.T Road Scheme VIM kolkata-54,Kolkata,CCU-N,100,2024-10-10 09:10:04.026008+00,,0.5186289703916214,3e146387-2437-4638-bc89-e88ea457a3a9
c69ad594-6547-4b80-9e1c-d582d53d27a0,Beltala Sarbojanin Durgotsab,22.481865,88.372325,"4/64B, Vidyasagar Kolkata - 700047",Kolkata,CCU-S,98.3683269258824,2024-10-06 20:10:31.102111+00,2024-10-10 03:51:59.334155+00,1.4986177315326192,4db37870-5612-4412-96e0-177887986262
4e258545-efa0-400c-af9f-06f4d824eb61,Behala Pathak Para Sarbojonin Durgotsav,22.506745,88.320911,"Pathak Para, Behala, Kolkata, West Bengal 700034",Kolkata,CCU-S,99.18411425014811,2024-10-06 20:10:30.165183+00,2024-10-09 19:10:37.449747+00,0.1618932239243176,531eec9f-a676-48b2-8054-619f8d764267
f1aef39b-091b-4fbf-bc7f-aba69b37ac01,Belgachia Yuba Sammilani,22.602764,88.378991,"Bhairab Mukherjee Lane,Kolkata - 700 004.",Kolkata,CCU-N,98.52979252622269,2024-10-06 20:10:30.870732+00,2024-10-09 19:00:00.242+00,0.677011348790654,994d8f80-908e-4ea9-a33b-4f83326a0460
573d6d47-f827-4a02-84e5-4f5b1834c333,Bhowanipore De Bari Durga Puja,22.535016,88.343559,"26/E, Chandra Nath Chatterjee Street, Bhowanipore, Kolkata ? 700025",Kolkata,CCU-S,99.05583346350404,2024-10-06 20:10:31.648475+00,2024-10-09 19:00:00.242+00,0.32216718409507594,e86fb29e-7d2c-457c-82d5-1783c667b846
5232c193-c101-44ca-908e-722d6e3c6c49,Betarpally Cultural Association,22.480255,88.348795,"9/8 C, Chandi Ghosh Rd, Kudghat, Moore Avenue, Tollygunge, Kolkata, West Bengal 700040",Kolkata,CCU-S,100.46332085415627,2024-10-06 20:10:31.394896+00,2024-10-09 19:00:00.242+00,0.29815400343089477,00d7356c-82fe-4cc0-b357-817947673407
457e46c1-eed2-4085-9ade-be9637c10859,Behala Debdaru Fatak,22.5026506,88.3174747,"Debdaru Fatak, Ward 131, Kolkata - 700034, WB, India",Kolkata,CCU-S,99.54555266938638,2024-10-06 20:10:29.893638+00,2024-10-09 19:10:37.452332+00,0.4140093348886419,6f4c7217-94dd-4db3-8cb5-3a85f1fdbac5
fb292c64-7ced-413d-b8de-34249b568713,Arjunpur Amra Sabai Club,22.62433,88.42446,"Radha Krishna Sweets, NB - 116, E Mall Rd, Bidhannagar - 700080, WB, India",Kolkata,CCU-N,99.4901531175168,2024-10-06 20:10:24.690458+00,2024-10-09 19:00:00.242+00,3.27127238986275,389a7dbb-ca50-4fec-9a3a-eb32caa250dd
c087cfe4-d9aa-45e3-b88f-3d7a8d77dcf1,Beleghata Sandhani,22.5648434,88.3961574,"Kolkata - 700010, WB, India",Kolkata,CCU-E,100.61645825261965,2024-10-06 20:10:30.805473+00,2024-10-09 19:00:00.242+00,1.0110568082609008,3e146387-2437-4638-bc89-e88ea457a3a9
4e2a6760-07c8-479f-8e84-b52c88c0e9a4,Bhai Bhai Sangha Sarbojanin,22.483172,88.181112,"38/c, Pandit Moti Lal Nehru Road, Samanta Para, Budge Budge, Kolkata, West Bengal 700137",Kolkata,CCU-S,24.73,2024-10-06 20:10:31.478644+00,2024-10-10 02:09:33.932657+00,12.864437103687282,1ba8a06d-d7b1-41b9-856f-ac07f1daa4a1
35885bd8-4b32-440c-82c5-396280b7204e,Beleghata Nabamilan,22.565353,88.396364,"P -81,, 10, CIT Rd, Subhas Sarobar Park, Phool Bagan, Beleghata, Kolkata- 700010",Kolkata,CCU-E,100.63874797249812,2024-10-06 20:10:30.548646+00,2024-10-09 19:00:00.242+00,0.979561794812161,3e146387-2437-4638-bc89-e88ea457a3a9
b9037ca7-206c-41b6-b1a0-bc95361257ec,Belgachia Sadharan Durgotsab Committee,22.607554,88.383448,"Talapark Circus, Maidan, Kolkata, West Bengal 700037",Kolkata,CCU-N,98.68848150485789,2024-10-06 20:10:30.793987+00,2024-10-10 03:51:59.32905+00,0.35770566184797004,fb11daad-cbbf-4105-aba0-a487a4e885c5
0496dcf2-93a9-49d7-81d2-c8db54420b9c,Kathamrut Udyan Garfa Reservoir,22.49773,88.380384,"78-79, Garfa Main Rd, Pratapgarh, Sen Para, Santoshpur, Kolkata, West Bengal 700075",Kolkata,CCU-S,97.70791815417358,2024-10-08 15:19:01.853102+00,2024-10-09 19:00:00.242+00,1.8890829808643457,4584a420-4222-4f57-9280-2fa4df3c2ccd
a94a7b51-f282-4af6-8b7c-dc52632c9201,Beliaghata 33 No Palli,22.566563,88.393852,"Narkeldanga, Kolkata - 700010, WB, India",Kolkata,CCU-E,100.58327802218939,2024-10-06 20:10:30.89538+00,2024-10-09 19:00:00.242+00,0.7203730184341646,3e146387-2437-4638-bc89-e88ea457a3a9
bc16726c-aa3c-488c-85ca-399f1f9dd42e,Behala Nutan Dal,22.500394,88.320315,"16, Sashibhusan Mukherejee Raod, Kolkata, West Bengal 700034",Kolkata,CCU-S,97.48937800808072,2024-10-06 20:10:30.062623+00,2024-10-10 07:39:13.753806+00,0.3450598323653011,6f4c7217-94dd-4db3-8cb5-3a85f1fdbac5
25677824-8d04-43a1-960d-5d25bdd19fbe,Beniapara Sarbojanin Durgatsav,22.58417,88.331142,"12, Sadar Boxi Lane, Howrah, India 711101",Kolkata,HWH,100.55515348268072,2024-10-06 20:10:31.318546+00,2024-10-09 19:00:00.242+00,0.30738286936343007,ba2d2d43-3fe7-4320-bb41-34bbc60b4420
ef9bcdf1-71f2-405e-9018-3d6e52e01cf1,Bhagabati Park Durga Puja Committee,22.61629,88.41213,"100 Jessore Road, Bhagabati Park Kolkata - 700 074",Kolkata,CCU-N,97.70791815417358,2024-10-06 20:10:31.401491+00,2024-10-10 09:05:40.618771+00,2.0571761838978517,389a7dbb-ca50-4fec-9a3a-eb32caa250dd
36a09993-51b9-447c-a65d-2216a79836e7,Beleghata 33 No Pallibasibrinda,22.568204,88.391848,"P-225/1, C.I.T Road, Kolkata-700010",Kolkata,CCU-E,99.64229523382207,2024-10-06 20:10:30.511995+00,2024-10-10 05:17:45.235464+00,0.46626665984415144,3e146387-2437-4638-bc89-e88ea457a3a9
23179142-d95f-466a-be39-575afff6e358,Bhawanipur 75 Pally,22.5332948,88.3454998,"Debendra Ghosh Road, Bhowanipore, Kolkata - 700025, WB, India",Kolkata,CCU-S,2.5,2024-10-06 20:10:31.634146+00,2024-10-09 19:00:00.242+00,0.06279336823736655,e86fb29e-7d2c-457c-82d5-1783c667b846
4cd4d1d2-4b56-4cd1-9a75-fc3cbfaa93ab,Behala Friends Gosaipara Sarbojanin,22.501122,88.320429,"Auddy Bagan Basti, Behala, Kolkata, West Bengal 700034",Kolkata,CCU-S,97.25503658857474,2024-10-06 20:10:29.962937+00,2024-10-10 09:31:57.248693+00,0.3990668397634752,6f4c7217-94dd-4db3-8cb5-3a85f1fdbac5
85ee807b-93ea-4694-a4a7-52810de4a81d,Behala Mukul Sangha,22.503359,88.313705,"Behala, Kolkata - 700034, WB, India",Kolkata,CCU-S,98.49475477726865,2024-10-06 20:10:30.027844+00,2024-10-10 09:13:09.345086+00,0.6190076111045041,6f4c7217-94dd-4db3-8cb5-3a85f1fdbac5
86261c9e-d340-4d41-8e39-c33710f05095,Bhowanipur Swadhin Sangha,22.531966,88.346481,"40B, Mahesh Chowdhury Street, Paddapukur, Bhowanipore, Kolkata, West Bengal 700025",Kolkata,CCU-S,97.72083664477479,2024-10-06 20:10:32.009186+00,2024-10-09 19:00:00.242+00,0.1563833176186188,e86fb29e-7d2c-457c-82d5-1783c667b846
8b9875b5-9aa3-4659-9fe4-d514ceaea976,Bishalaxmitala Sarbojanin Durga Puja Committee,22.50926,88.315284,"8,Bishalaxmitala Road, Naskarpur, Behala, Kolkata, West Bengal 700060",Kolkata,CCU-S,98.34243467210666,2024-10-06 20:10:32.31231+00,2024-10-10 03:51:59.337431+00,0.5557832034443931,531eec9f-a676-48b2-8054-619f8d764267
74863825-ba41-419b-8faa-aec1e5b0cd2c,Brindabon Netaji Balak Sangha,22.585947,88.317319,"5,, 11/4, Brindaban Mullick Ln, Bantra, Ichapur, Howrah, West Bengal 711104",Kolkata,HWH,98.85456337993716,2024-10-06 20:10:32.793254+00,2024-10-09 19:00:00.242+00,1.6681577113192712,ba2d2d43-3fe7-4320-bb41-34bbc60b4420
b9760320-fec0-4d6b-b6d2-140a0dfd0eb7,Bhowanipur Sanatan Dharmatsahini Sabha,22.529031,88.342999,"33, Balaram Bose Ghat Road, Kolkata-700025",Kolkata,CCU-S,100.61048723917662,2024-10-06 20:10:31.840498+00,2024-10-09 19:00:00.242+00,0.574983280449087,e86fb29e-7d2c-457c-82d5-1783c667b846
89374abf-cc89-4de6-92e6-929adec31a66,CD Block,22.5919194,88.409485,"265, Bidhannagar - 700048, WB, India",Kolkata,CCU-E,98.5618303829137,2024-10-06 20:10:32.944114+00,2024-10-09 19:00:00.242+00,0.5641000891295794,e4f363f7-cb0b-49fa-bcf6-b8959c33ef53
02a1ecbf-ad3e-4b92-97ee-9d25f6fd553d,Bose Barir Puja (Panihati),22.69322222,88.37097222,"Sodepur, Kamarhati - 700114, WB, India",Kolkata,CCU-N,98.66466786256053,2024-10-06 20:10:32.366919+00,2024-10-10 06:11:46.424051+00,4.427447188240573,a43fc13b-5107-428b-a4fe-96ffb2c58f71
fae92dc0-c767-4def-ae39-60549f6cd85c,Chanditala Sarbojanin Durgotsab Samity,22.499808,88.330494,"186, Roy Bahadur Rd, Ajoy Nagar, Tara Park, Behala, Kolkata, West Bengal 700053",Kolkata,CCU-S,98.23922492873027,2024-10-06 20:10:33.539593+00,2024-10-10 03:51:59.335805+00,1.3534235320484034,6f4c7217-94dd-4db3-8cb5-3a85f1fdbac5
8f331f64-bc35-4ab8-bbdc-f076b49c6b00,CE Block,22.5949341,88.4131218,"Jhupri Market, BE-56, BE Block, Kolkata - 700064, WB, India",Kolkata,CCU-E,4,2024-10-06 20:10:32.989912+00,2024-10-09 19:00:00.242+00,0.5612884321190522,ec2f65d6-1fae-4116-bae4-f7b72c4d9399
4f6e6ba5-064d-4ecb-95be-465c3f032b2d,Brindaban Matri Mandir,22.582521,88.373226,"16, Brindaban Mullick First Lane., Sukhiya Street, Kolkata, West Bengal 700009",Kolkata,CCU-C,99.66365748771369,2024-10-06 20:10:32.745001+00,2024-10-10 09:05:40.620372+00,1.1612779511926137,ad97440c-ef55-499a-bdb7-12bf12f32786
627bd9ec-83d4-4796-b739-0cf9fea4c899,Bijoypur Town Club,22.6941069,88.3922172,"Sodepur, Panihati - 700111, WB, India",Kolkata,CCU-N,100.74667362597722,2024-10-06 20:10:32.191173+00,2024-10-10 09:23:09.005763+00,4.715213037033147,6c5c0678-590f-4aad-a523-f1b830d07ee6
1581d13d-5cd7-458e-a375-15991ade89d9,Bidhanpally Adhibasibrinda,22.467784,88.371933,117 Bidhan Pally Kolkata -700048,Kolkata,CCU-S,100.66440563077981,2024-10-06 20:10:32.096576+00,2024-10-09 19:00:00.242+00,1.3034271670253421,4db37870-5612-4412-96e0-177887986262
b0665408-0fdf-4e98-9564-61bbd240e46d,Binayak Residency Durgotsav Committee,22.52479,88.370419,"6/5C, 6/5D & 7A, Anil Maitra Rd, Ballygunge Place, Ballygunge, Kolkata, West Bengal 700019",Kolkata,CCU-S,100.49823037534767,2024-10-06 20:10:32.243779+00,2024-10-09 19:00:00.242+00,2.4586144376366703,491e3fa0-696f-4194-b3c1-4c60a7e1f92d
3d708b3d-a22e-470a-b302-73d7a57be2b3,Bhowanipur Udayan Club Durga Puja,22.528153,88.351379,"1, Benoy Bose Lane, Kolkata-700025",Kolkata,CCU-S,85.08,2024-10-06 20:10:32.11335+00,2024-10-10 06:51:00.557663+00,0.6629166577351611,491e3fa0-696f-4194-b3c1-4c60a7e1f92d
82f1b598-f5db-4f58-a5da-eccfa073e0b6,Brahmapur Harisava Sarbojanin Durgotsav,22.46566,88.36391,"46 Harisava Math, Brahmapur, N G Park, Bansdroni, Kolkata, West Bengal 700084",Kolkata,CCU-S,100.66477970231287,2024-10-06 20:10:32.647799+00,2024-10-09 19:00:00.242+00,0.9282078536265614,4db37870-5612-4412-96e0-177887986262
6efdc9c0-d1fd-4dbd-884b-9d943915c9df,Capricorn Springfield Flat Owners Association (Pilot Bari),22.472149,88.356649,"Benoy Pally, Aurobindo Park, Kolkata, West Bengal 700070",Kolkata,CCU-S,100.63782050651128,2024-10-06 20:10:33.28286+00,2024-10-09 19:00:00.242+00,0.4598583922577619,4db37870-5612-4412-96e0-177887986262
2c0cd840-6240-4e6e-99e5-3dd339ed99a6,Behala Nutan Sangha,22.502183,88.319064,"375, Diamond Harbour Rd, Gholeshapur, Behala, Kolkata, West Bengal 700034",Kolkata,CCU-S,98.4795299804251,2024-10-06 20:10:30.10903+00,2024-10-09 19:10:37.462414+00,0.40221846489433927,6f4c7217-94dd-4db3-8cb5-3a85f1fdbac5
b3b80e52-24e7-4a0a-b833-c2ea51e4c984,Chakraberia Sarbojanin Durgotsab,22.532162,88.349536,"58A, Chakraberia Road (North), Kolkata, West Bengal 700020",Kolkata,CCU-S,100.40200460947253,2024-10-06 20:10:33.43913+00,2024-10-09 19:00:00.242+00,0.37507602580660987,e86fb29e-7d2c-457c-82d5-1783c667b846
565a1904-6551-44ee-8a18-41e21520d248,Aykya sammilani pujo,22.482727,88.112802,"1015/264B/249B, Akkari Singha Roy Road, National Highway 6, Fuleswar, Howrah, West Bengal 711316",Kolkata,HWH,23.14,2024-10-08 15:19:01.874023+00,2024-10-10 02:09:18.698606+00,19.709105811427307,1ba8a06d-d7b1-41b9-856f-ac07f1daa4a1
db8cf055-be99-4f88-a7a6-0b3140de7a85,CG Block,22.5920383,88.4216066,"Sector II, Bidhannagar - 700101, WB, India",Kolkata,CCU-E,100.2608702667851,2024-10-06 20:10:33.106756+00,2024-10-09 19:00:00.242+00,0.6231303585326395,16187aae-7d9b-4140-a6bd-5cef445960b8
b99b6dad-f0ba-41d1-94cf-da10a53c1f9f,CF Block Residents Association,22.594028,88.418076,"CF, CF Block, Sector 1, Salt Lake City, Kolkata, West Bengal 700064",Kolkata,CCU-E,1.5,2024-10-06 20:10:33.043019+00,2024-10-10 08:07:42.649195+00,0.473069154827836,ec2f65d6-1fae-4116-bae4-f7b72c4d9399
5a4363f6-c17d-4b7f-a715-a71122bced53,Bosepukur Parijat Club Sarbojanin Durga Puja,22.523353,88.382366,"Bose Pukur Rd, Bosepukur, Kasba, Kolkata, West Bengal 700039",Kolkata,CCU-S,99.59394744244788,2024-10-06 20:10:32.407567+00,2024-10-10 09:13:09.348684+00,2.18164781760452,5517eb14-535a-4511-89e9-3e4a50f1ad8c
f199bc3b-1f36-44b7-82ff-10016c58918c,Shyambazar Sarbojanin Durgotsab Samity,22.60648389,88.37651234,"Bidhan Sarani, Shyam Bazar, Kolkata, West Bengal",Kolkata,CCU-N,100,2024-10-10 09:10:04.071778+00,,0.7021756149577734,994d8f80-908e-4ea9-a33b-4f83326a0460
c2880d11-dab7-48fd-aa9d-760e9ab3fec4,Bhowanipur Ritwik Club Durga Puja Committee,22.533087,88.346934,"76 A/76B, Padda PUkur Road, Bhowanipore, Kolkata, West Bengal 700020",Kolkata,CCU-S,100.66552784537897,2024-10-06 20:10:31.793696+00,2024-10-09 19:00:00.242+00,0.0888387340940347,e86fb29e-7d2c-457c-82d5-1783c667b846
cfb2a272-c01a-497c-80a5-72ec69998746,CB Block,22.5888806,88.4034229,"CB Block Park, Bidhannagar - 700048, WB, India",Kolkata,CCU-E,99.66665005997815,2024-10-06 20:10:32.915257+00,2024-10-10 08:07:42.647133+00,0.4994972716119616,e4f363f7-cb0b-49fa-bcf6-b8959c33ef53
428c0e8f-deca-4ab9-a2df-6dca39c8f2c6,Brijee Unnayan Samity Durgotsab Committee,22.468466,88.384922,"West,, Briji Road, Sreerampur, Garia, Kolkata, West Bengal 700084",Kolkata,CCU-S,97.72083664477479,2024-10-06 20:10:32.69269+00,2024-10-09 19:00:00.242+00,0.7467925760848748,3d094844-70ce-4bd2-bc01-67df8990dfcd
213133ce-6796-412d-af87-6855de01b298,CIT Sarbojanin,22.633426,88.377465,"Baranagar Police Station, 47, Barrackpore Trunk Road, Baranagar - 700090, WB, India",Kolkata,CCU-N,0,2024-10-06 20:10:33.188647+00,2024-10-10 07:36:55.227837+00,1.8251946972798163,17b0160f-c962-437a-9fa6-19eb743dd271
961dc19b-04f2-4098-8d1d-ea14420a36ca,Central Calcutta Youth Association Durga Puja Committee,22.563772,88.3625,"37, Gokul Boral St, Bowbazar, Kolkata, West Bengal 700016",Kolkata,CCU-C,98.63178038566848,2024-10-06 20:10:33.328237+00,2024-10-10 09:13:09.352254+00,0.9222188324174287,801d5775-edef-407f-84ab-153b44322842
c868facd-4d17-4e7d-8b10-eeefa5094a26,Bhowanipur Sarbojanin Durgotsav,22.532387,88.3435,Harish Mukherjee Road Kol- 700025,Kolkata,CCU-S,97.83710306018571,2024-10-06 20:10:31.896494+00,2024-10-09 19:00:00.242+00,0.28784229258652594,e86fb29e-7d2c-457c-82d5-1783c667b846
9c7c8937-840d-4dd2-811a-f033aebcbea0,Chakraberia Sarbojanin,22.533646,88.351891,"Chakraberia Trikon Park, Ward 70, Kolkata - 700019, WB, India",Kolkata,CCU-S,20.38,2024-10-06 20:10:33.400078+00,2024-10-10 08:07:22.089558+00,0.5947820260166411,e86fb29e-7d2c-457c-82d5-1783c667b846
c8bf93c9-b7f5-4d9e-877a-4f9c7bb2e3c7,Chakpara Jubak Brinda Sarbojanin Durgotsav,22.615008,88.317546,"Liluah, Chakpara, West Bengal 711204",Kolkata,HWH,100.43185866887211,2024-10-06 20:10:33.363513+00,2024-10-09 19:00:00.242+00,3.998483044179982,ba2d2d43-3fe7-4320-bb41-34bbc60b4420
c9e10224-0985-449c-a0ba-3a7a8b44d78a,CIT Park Goabagan Sarbojanin Durgotsav Samity,22.591168,88.372663,"10A, Sahitya Parishad Street, Kolkata ? 700006",Kolkata,CCU-N,99.55003127357077,2024-10-06 20:10:33.148973+00,2024-10-10 08:10:06.162796+00,0.9305202598554537,4e9bfc76-4813-4e06-b306-bdfdd3df45a5
e9172026-d559-4a37-8f88-c7e507f7e2f8,Bhowanipur Muktadal,22.527443,88.343616,"Harish Mukherjee Rd, Jatin Das Park, Patuapara, Bhowanipore, Kolkata, West Bengal 700025",Kolkata,CCU-S,45.64,2024-10-06 20:10:31.74038+00,2024-10-10 01:27:23.122472+00,0.46064118606044224,491e3fa0-696f-4194-b3c1-4c60a7e1f92d
8302ac38-e9a4-4987-95f9-4056cc8922c1,Bosepukur Talbagan Sarbojanin,22.516664,88.382412,"Tal Bagan, Bosepukur, Kasba, Kolkata, 700042",Kolkata,CCU-S,94.29931376871771,2024-10-06 20:10:32.594378+00,2024-10-10 09:31:57.252945+00,1.9687327887952433,5517eb14-535a-4511-89e9-3e4a50f1ad8c
c77e8ea5-c004-4f8f-b63a-8bc9e38de23b,Bosepukur Sitala Mandir,22.516581,88.388023,"Loknath Pharmacy, 198, Rajdanga Purbapara RB Connector, Ward 107, Kolkata - 700078, WB, India",Kolkata,CCU-S,99.34302388776956,2024-10-06 20:10:32.452607+00,2024-10-10 09:13:09.34688+00,1.3956534609591233,5517eb14-535a-4511-89e9-3e4a50f1ad8c
af737593-f6eb-471c-ae59-86d01dbfb501,Dakshin Kolkata Sarbojanin Durgotsab,22.524378,88.33448,"Alipore, Kolkata, West Bengal 700027",Kolkata,CCU-S,99.339108501076,2024-10-06 20:10:34.490806+00,2024-10-10 05:31:14.171679+00,1.2335453038974853,491e3fa0-696f-4194-b3c1-4c60a7e1f92d
aacbb67d-26d0-4313-805d-586c7a054b17,D. N. Mitra Square Sarbojanin,22.535506,88.34661,"2/1C, Dr. Rajendra Road, Kolkata-700020",Kolkata,CCU-S,99.70464824630601,2024-10-06 20:10:34.345197+00,2024-10-09 19:45:55.379514+00,0.24734990297945822,e86fb29e-7d2c-457c-82d5-1783c667b846
b45c21a1-f425-40a9-af6f-113ee91e6b97,Baishnabghata Patuli Upanagari,22.471201,88.380142,"Baghajatin, Kolkata - 700086, WB, India",Kolkata,CCU-S,92.67097127105411,2024-10-08 15:13:47.075715+00,2024-10-10 09:31:57.255812+00,1.3195568817126542,3d094844-70ce-4bd2-bc01-67df8990dfcd
f9e93eb6-9b03-44a6-8fed-5fa4010d6a82,Chatterjee Colony Puja Committee,22.506416,88.330704,"P-130 A,S.N Roy Road,Kolkata-700038",Kolkata,CCU-S,100.56337091294256,2024-10-06 20:10:33.735039+00,2024-10-09 19:00:00.242+00,1.0597368114710266,531eec9f-a676-48b2-8054-619f8d764267
f25a495d-3b61-4863-816a-54ea2e687839,Chata Pora Banerjee Bari,22.6870535,88.3701678,"Sodepur, Kamarhati - 700058, WB, India",Kolkata,CCU-N,98.54995961032584,2024-10-06 20:10:33.645068+00,2024-10-10 06:11:46.429134+00,3.737554114706262,a43fc13b-5107-428b-a4fe-96ffb2c58f71
d8676242-4e9f-4449-84f4-67a9c82d9f6c,Dakshineswar Adi Sarbojanin Durgotsab O Dolutsab Samity,22.65922,88.364435,"2b, AC Sarkar Rd, Dakshineswar, Kolkata, West Bengal 700076",Kolkata,CCU-N,99.45741928720794,2024-10-06 20:10:34.74869+00,2024-10-10 05:31:14.175856+00,0.5882052689627799,a43fc13b-5107-428b-a4fe-96ffb2c58f71
d0caf615-f15e-41a6-80fb-6d2f31839ada,Das Bari DurgaPuja,22.7040215,88.3723976,"Sodepur, Khardaha - 700114, WB, India",Kolkata,CCU-N,11,2024-10-06 20:10:34.950911+00,2024-10-10 06:11:46.43069+00,5.63606586898002,a43fc13b-5107-428b-a4fe-96ffb2c58f71
128a9558-6618-4f4e-988a-7aac816bd508,Deodar Street Balak Sangha,22.526427,88.360239,15/8 Deodar Street Kolkata 700019,Kolkata,CCU-S,99.67242565608825,2024-10-06 20:10:35.20447+00,2024-10-09 19:45:55.376696+00,1.4326613401351422,491e3fa0-696f-4194-b3c1-4c60a7e1f92d
f3136b2b-a426-4fb5-b11d-2c556e5f160b,Garia Mitali Sangha (Naba Durga),22.462793,88.380522,"1-2, Garia Station Rd, Barhans, Garia, Rajpur Sonarpur, West Bengal 700084",Kolkata,HWH,100.65956542431361,2024-10-08 15:19:01.965084+00,2024-10-09 19:00:00.242+00,1.1988379979047008,3d094844-70ce-4bd2-bc01-67df8990dfcd
2ad3c6cb-742e-41f5-a206-37ba770f1bcb,Dakshin Phalguni Club,22.470131,88.379921,"Kolkata - 700086, WB, India",Kolkata,CCU-S,99.35407136239824,2024-10-06 20:10:34.690657+00,2024-10-10 05:31:14.178061+00,1.2928087999339197,3d094844-70ce-4bd2-bc01-67df8990dfcd
4e604070-28b3-45f1-8c6c-4f173d0d9428,Chorbagan Mitra Bari,22.582407,88.362429,"Muktaram Babu Street, Machua Bazar, Kolkata - 700007, WB, India",Kolkata,CCU-N,92.71943596824849,2024-10-06 20:10:33.970334+00,2024-10-10 09:31:57.258358+00,0.20200680157125506,d9f16ea9-84fc-4a04-bb10-972f8ea6a81a
7b37b971-8991-4086-99a5-4ef30bb47d10,Chetla Central Association,22.517737,88.334206,"33/4A, Chetla Central Rd, Chetla, Kolkata, West Bengal 700027",Kolkata,CCU-S,91.66982896433983,2024-10-06 20:10:33.803988+00,2024-10-10 08:57:01.105522+00,1.120261248296055,2e86ea56-66ef-4c97-8341-4e066f8d8226
21918ea5-cbf1-4dbe-8301-5bfa14df529a,Darjeepara Sarbojonin Durgotsab Samity,22.592462,88.367956,"Darjipara, Kolkata, West Bengal 700006",Kolkata,CCU-N,97.92753249439419,2024-10-06 20:10:34.860108+00,2024-10-09 19:00:00.242+00,0.48218978259401946,4e9bfc76-4813-4e06-b306-bdfdd3df45a5
965f7e40-f641-44d8-8d12-98aae4b83bc5,Chorbagan Chatterjee House,22.582254,88.362941,"Muktaram Babu Ln, Machua Bazar, Kolkata - 700007, WB, India",Kolkata,CCU-N,37.79,2024-10-06 20:10:33.889857+00,2024-10-10 09:31:57.260596+00,0.22157451620716637,d9f16ea9-84fc-4a04-bb10-972f8ea6a81a
9b59eaa4-aae8-4aa3-9976-798055a8bae1,Cossipore I.H.E Tenant Welfare Association,22.627164,88.37224,"87B, Kasipur Rd , Cossipore Road, Bara Nagar, CIT, Satchasi Para, Kolkata, West Bengal 700035",Kolkata,CCU-N,0,2024-10-06 20:10:34.204118+00,2024-10-09 19:00:00.242+00,2.2130619582763154,389a7dbb-ca50-4fec-9a3a-eb32caa250dd
8045f740-3e34-4b1f-ab8e-b818600d4317,Dakshin Kolkata Tarun Samity Durga Puja,22.515614,88.341925,"23/7/3B, Tollygunge Road, Sahanagar, Kalighat, Kolkata, West Bengal",Kolkata,CCU-S,68.31,2024-10-06 20:10:34.574463+00,2024-10-10 05:31:14.179755+00,0.4344981951313592,182e71b3-4c47-4401-97de-a2a53e3e69d5
00d42c22-e9b9-4c65-a797-dd0b82b2d33f,Daw Bari Bandookwala,22.586186,88.359479,"Sri Krishna Daw Ln, Machua Bazar North, Kolkata - 700007, WB, India",Kolkata,CCU-N,100.65753445801093,2024-10-06 20:10:35.049893+00,2024-10-09 19:00:00.242+00,0.3850077856727168,ad97440c-ef55-499a-bdb7-12bf12f32786
6b458e20-b2a4-4bc8-8ce8-d30e826b4614,Darjeepara Sammilani,22.591429,88.367177,"Beadon Row, Hedua, Kolkata-700006",Kolkata,CCU-N,100.6503293902164,2024-10-06 20:10:34.825356+00,2024-10-09 19:00:00.242+00,0.5471350146616325,4e9bfc76-4813-4e06-b306-bdfdd3df45a5
736551f0-2d56-441b-85b3-ae195a73e699,Darpanarayan St. Sarbojanin Durga Puja,22.587297,88.35433,"Darpanarayan Tagore St, Malapara, Jorabagan, Kolkata, West Bengal 700007",Kolkata,CCU-N,99.25477821876271,2024-10-06 20:10:34.910978+00,2024-10-09 19:00:00.242+00,0.8987983142597723,ad97440c-ef55-499a-bdb7-12bf12f32786
a4341b7e-c87a-488c-9019-41cd521c5577,Taltala Sarbojanin Durgotsab Samity,22.4607493,88.2205434,"3, Durga Charan Doctor Rd, Maula Ali, Taltala, Kolkata, West Bengal 700014, India",Kolkata,CCU-S,100,2024-10-10 09:10:04.11014+00,,8.398567063386825,1ba8a06d-d7b1-41b9-856f-ac07f1daa4a1
3f64f8dd-4cda-48e1-9f50-51c848065169,DA Block,22.5847695,88.4019072,"Bond Forever Jewelry Pvt. Ltd, DA 18, Salt Lake City, Bidhannagar - 700048, WB, India",Kolkata,CCU-E,97.00157580297896,2024-10-06 20:10:34.39511+00,2024-10-10 07:21:24.144175+00,0.5258141480271487,ff5aba31-8fe5-4129-b882-65762b4723e2
de284a75-eb00-42e5-83f3-6420eeacf353,Dakshin Panihati Sarbojonin,22.6881151,88.3774661,"Sodepur, Kamarhati - 700114, WB, India",Kolkata,CCU-N,97.43871571055513,2024-10-06 20:10:34.639274+00,2024-10-10 06:11:46.427239+00,3.8485123664157337,6c5c0678-590f-4aad-a523-f1b830d07ee6
44a8baaa-d368-4da6-ac9a-7dc572bcc0e8,Chandranat Chatterjee Street Sarbojanin Durgotsab,22.534751,88.345869,"2/1 A, Chandranath Chatterjee Street, Bhawanipur, Kolkata - 700025",Kolkata,CCU-S,100.57537716425551,2024-10-06 20:10:33.56101+00,2024-10-09 19:00:00.242+00,0.15993516683237735,e86fb29e-7d2c-457c-82d5-1783c667b846
ecd0c22e-2673-41f7-963f-b2d101654d87,Deshbandhunagar Sarbojanin Durgotsab,22.612775,88.423516,"AA-8/4 Deshbandhunagar, Baguiati, Kolkata-700059",Kolkata,CCU-N,96.46349292706147,2024-10-06 20:10:35.292714+00,2024-10-10 06:52:33.276707+00,2.6132649991952825,ec2f65d6-1fae-4116-bae4-f7b72c4d9399
ef4b9297-d587-41ef-9d7a-54cbcfb8feb1,Club Road Bylane Durga Puja Committee,22.7037187,88.3718286,"Sodepur, Khardaha - 700114, WB, India",Kolkata,CCU-N,95.65624419176874,2024-10-06 20:10:34.043875+00,2024-10-10 06:11:46.432998+00,5.593845848172283,a43fc13b-5107-428b-a4fe-96ffb2c58f71
7310f9bd-4a6a-4a5b-a8f4-70d1ff8e6336,Chetla Sarbasadharaner Durgotsab,22.517326,88.339939,"Shop No-69/3B,, Chetla Rd, Kolkata, West Bengal 700027",Kolkata,CCU-S,126.09,2024-10-06 20:10:33.846042+00,2024-10-10 09:29:20.782485+00,0.6273759164999025,182e71b3-4c47-4401-97de-a2a53e3e69d5
06c9c48b-fdef-4f3e-9407-e7495b72d0ab,DB Block,22.5862889,88.4049385,"Sector I, Bidhannagar - 700064, WB, India",Kolkata,CCU-E,100.32365413110699,2024-10-06 20:10:34.438529+00,2024-10-09 19:00:00.242+00,0.3137107866059175,e4f363f7-cb0b-49fa-bcf6-b8959c33ef53
33602a1a-4063-4661-84af-f48b7d41ae6d,Dakshin Pally Sarbojonin,22.6978082,88.3861413,"Sodepur, Khardaha - 700110, WB, India",Kolkata,CCU-N,97.3872352021569,2024-10-06 20:10:34.601905+00,2024-10-10 06:11:46.434567+00,4.979782432501633,6c5c0678-590f-4aad-a523-f1b830d07ee6
3068792f-e8b8-4282-a7bf-70096231f73c,D. N. Ghosh Road Sarbojanin Durgotsav Commitee,22.482359,88.184095,"24, D.N. Ghosh Rd, Maity Para, Samanta Para, Budge Budge, Kolkata, West Bengal 700137",Kolkata,CCU-S,4,2024-10-06 20:10:34.328224+00,2024-10-09 19:00:00.242+00,12.544943391825065,1ba8a06d-d7b1-41b9-856f-ac07f1daa4a1
b4e1bb22-14c0-4dac-b2e5-e38c78ded3e2,Deshapriya Park Durgotsab,22.518439,88.353527,"Rash Behari Ave, Manoharpukur, Kalighat, Kolkata, West Bengal 700029",Kolkata,CCU-S,99.39,2024-10-06 20:10:35.238129+00,2024-10-10 08:39:11.923644+00,0.7979845510119921,182e71b3-4c47-4401-97de-a2a53e3e69d5
21b4f9dc-50cf-4d27-b962-b67095d25ab4,Chandranath Chatterjee Street,22.52669,88.345848,"Seagull, 31A, Shyama Prasad Mukherjee Road, Ward 72, Kolkata - 700053, WB, India",Kolkata,CCU-S,50.71,2024-10-06 20:10:33.611977+00,2024-10-10 06:37:20.671583+00,0.27789347188854946,491e3fa0-696f-4194-b3c1-4c60a7e1f92d
da8f9818-2021-4b35-80c6-cf5af886a22f,Dhakuria Pragati Sangha Durga Puja,22.508624,88.371807,"30C, Dhakuria, Tanu Pukur, Kolkata, West Bengal 700031",Kolkata,CCU-S,99.50562889714882,2024-10-06 20:10:35.340125+00,2024-10-10 09:13:09.354866+00,2.7007384177835356,a112df8b-2feb-4181-b07b-8656d6a63351
df14f3d7-9c73-431a-ab66-e3016204cd9e,Colootala Dhar Bari,22.573947,88.357806,"Dendra Mullick Ln, Central Avenue 2, Kolkata - 700073, WB, India",Kolkata,CCU-N,98.33509142287883,2024-10-06 20:10:34.168276+00,2024-10-10 03:51:59.339108+00,0.1927161405921855,92ddde6b-2c26-4ea1-89ba-4d29592bde1e
4b18c12d-e321-4b1c-8dbc-25e1456ffad6,Cossipore Shakti Sangha,22.624208,88.37249,"8A Gopi Mondal Lane, Kolkata- 700002",Kolkata,CCU-N,2,2024-10-06 20:10:34.239436+00,2024-10-09 19:00:00.242+00,2.1108547031929588,389a7dbb-ca50-4fec-9a3a-eb32caa250dd
552752e2-4473-4e80-b8d1-a352c223231e,Dum Dum Park Bharat Chakra,22.610102,88.414169,"Tank No. 2, Dum Dum Park, South Dum Dum, Kolkata- 700055",Kolkata,CCU-N,38.31,2024-10-06 20:10:35.908154+00,2024-10-10 08:26:11.252361+00,2.19161463123525,ec2f65d6-1fae-4116-bae4-f7b72c4d9399
3e385196-316a-484d-9013-8147a7ca6cec,Ekta Oleander Resident,22.55891,88.379943,"Radhanath Chowdhury Road, Seal Lane, Tangra, Kolkata, West Bengal 700015",Kolkata,CCU-C,62.9,2024-10-06 20:10:36.952726+00,2024-10-10 07:30:35.173363+00,1.2662224353398417,49b54ead-fc73-40d3-8a07-616e58170615
e3608905-7065-460f-ac23-4e8567eab3f5,Dum Dum Tarun Dal Association,22.610051,88.419617,"60, Shyam Nagar Road, Dum Dum Park, South Dum Dum, Kolkata, West Bengal 700055",Kolkata,CCU-N,53.2,2024-10-06 20:10:36.296748+00,2024-10-10 08:17:42.563837+00,2.2195272413982656,ec2f65d6-1fae-4116-bae4-f7b72c4d9399
3ef46151-7c9c-4fd1-9d88-5c81459edca1,Diamond City West Welfare Society,22.484178,88.301672,"18, Ho Chi Minh Sarani, Bakultala, Behala, Kolkata, West Bengal 700061",Kolkata,CCU-S,24.85,2024-10-06 20:10:35.596591+00,2024-10-10 03:16:08.112128+00,1.263800831717571,548cfbb1-4ff7-4f9c-ab78-537c78920ee3
ec37a029-ca99-4a54-bab4-ca172d8ac37e,Dum Dum Park Sarbojanin Durga Puja Committee,22.609514,88.4164,"225/1, Dum Dum Park, South Dum Dum, Kolkata, West Bengal 700055",Kolkata,CCU-N,55.19,2024-10-06 20:10:36.036628+00,2024-10-10 08:26:11.254429+00,2.122837898057412,ec2f65d6-1fae-4116-bae4-f7b72c4d9399
ee608668-1cc9-4842-84fe-689e7c45e411,Durga Puja of 4 Ghosh Lane,22.585108,88.370789,"Sealdah North, Kolkata - 700006, WB, India",Kolkata,CCU-C,100.60198159884222,2024-10-06 20:10:36.491189+00,2024-10-09 19:00:00.242+00,0.8228743366940574,ad97440c-ef55-499a-bdb7-12bf12f32786
ec4f4117-cb0e-4c76-8f5c-4c8aea7b991a,Durgabari,22.499889,88.315765,"Brahmo Samaj Road, Behala, Kolkata - 700034, WB, India",Kolkata,CCU-S,97.54867316887184,2024-10-06 20:10:36.501578+00,2024-10-10 09:05:40.629495+00,0.19504432622801682,6f4c7217-94dd-4db3-8cb5-3a85f1fdbac5
942a4d04-a45e-4544-b7ab-1f0d4c8c769d,Dutta Family Hatkhola - Madan Mohan Dutta,22.593849,88.354017,"Madan Mohan Dutta Lane, Ward 20, Kolkata - 711107, WB, India",Kolkata,CCU-N,96.56771962657963,2024-10-06 20:10:36.602814+00,2024-10-10 07:08:41.731908+00,1.1819006907045266,4e9bfc76-4813-4e06-b306-bdfdd3df45a5
684aad40-4058-41c1-8113-d13d4df2f83f,Ekdalia Evergreen Club Durga Puja,22.521216,88.366581,"15, Ekdalia Road, Ekdalia, Ballygunge, Kolkata, West Bengal 700019",Kolkata,CCU-S,49.14,2024-10-06 20:10:36.928747+00,2024-10-10 09:31:13.004948+00,2.091338081010446,491e3fa0-696f-4194-b3c1-4c60a7e1f92d
5daa45f9-6baa-4931-8276-532d6e4ffac3,Eden City Durga Puja,22.493402,88.210956,"New Budge Budge Trunk Road, Parbangla, Sarengabad, Kolkata-700137",Kolkata,CCU-S,4,2024-10-06 20:10:36.802897+00,2024-10-09 19:00:00.242+00,10.387447537016973,68356bfc-0e55-420a-b46e-7d39f376f90b
9d73c850-c281-4937-8a5e-d30c4f7e069a,Diamond Park Sabojanin Durgotsav Committee,22.45192,88.304284,"P-62, Diamond Park, Joka, Kolkata, West Bengal 700104",Kolkata,CCU-S,97.70791815417358,2024-10-06 20:10:35.637264+00,2024-10-09 19:00:00.242+00,0.2627886211999592,1ba8a06d-d7b1-41b9-856f-ac07f1daa4a1
a0b673d1-858a-45c3-96cf-230cb0b5175a,Entally Kantal Bagan Durga Puja Committee,22.557502,88.371924,"35/A, Entally, Kolkata, West Bengal 700014",Kolkata,CCU-C,4.5,2024-10-06 20:10:37.017118+00,2024-10-09 19:00:00.242+00,1.0800386332677565,49b54ead-fc73-40d3-8a07-616e58170615
83cd6f96-85b9-499e-8c3d-1f14bc0fe841,Shyamapally Shyama Sangha,22.49152,88.37159,"Ananda Pally, Kolkata - 700032, WB, India",Kolkata,CCU-S,99.65407010554696,2024-10-06 20:10:59.308982+00,2024-10-10 08:07:23.011231+00,2.284401287999268,4db37870-5612-4412-96e0-177887986262
ecf68bc8-5b19-455a-a4ca-fad15a0ba91f,Dhiren Charu Smriti Sangha,22.561184,88.405335,"1a/2a Ramkrishna Naskar Lane,CIT More, Beleghata, Kolkata, West Bengal 700010",Kolkata,CCU-E,100.56330213516846,2024-10-06 20:10:35.570625+00,2024-10-09 19:00:00.242+00,1.3410548761958316,d4e43d7a-5bf7-42fd-91cd-2361c78e56f3
915220a4-bd1b-449c-9fe3-3d39f0d16a47,Dipabali Co-Operative Housing Puja Committee,22.48686,88.391007,"1050/2, P G, Survey Park, Santoshpur, Kolkata, West Bengal 700075",Kolkata,CCU-S,99.66608878798887,2024-10-06 20:10:35.768432+00,2024-10-10 09:05:40.622132+00,0.29989842319176274,adb0c2c5-908b-4693-9855-72c4b5b2f462
c798f482-c5ac-43f6-a3f3-8886fe91235d,Rabindranagar Pally Unnayan Samiti Durga manch,22.679827,88.284145,"Station Pally, Dankuni, West Bengal 712311",Kolkata,HWH,96.7006837994369,2024-10-08 15:19:01.973035+00,2024-10-10 07:36:55.234075+00,8.656698113372276,a43fc13b-5107-428b-a4fe-96ffb2c58f71
80c7f7f3-2512-4951-bffb-52189671f85e,Dum Dum Park Tarun Sangha,22.610095,88.411637,"Tank No 3, Dum Dum Park, South Dum Dum, Kolkata, West Bengal 700055",Kolkata,CCU-N,98.18439280242593,2024-10-06 20:10:36.060236+00,2024-10-10 08:26:14.871222+00,2.223503115867297,ec2f65d6-1fae-4116-bae4-f7b72c4d9399
7e1ef58e-dc5e-4be0-bc21-97dff00284c6,Entally Udayan Sangha,22.557594,88.367002,"16, Haralal Das St, Entally, Kolkata, West Bengal 700014",Kolkata,CCU-C,100.52455356409492,2024-10-06 20:10:37.054027+00,2024-10-09 19:00:00.242+00,1.1643152883348664,49b54ead-fc73-40d3-8a07-616e58170615
8e664e82-e523-48a9-884a-5fce1a0fe35c,Dhalua Naboday Sangha,22.472903,88.407973,"Dhalua (West), at Shiv Durga Mandir, Near Saha Panchil",Kolkata,CCU-S,3.5,2024-10-06 20:10:35.441474+00,2024-10-09 19:00:00.242+00,1.02418706676259,1d43be6c-48af-432b-bfdf-f1080fac51dc
2f0bf4ee-cdfb-41d2-bd4b-2bdf6a2338bc,Durga Charan Mitra Thakur Dalan,22.592106,88.365225,"Beadan Row, Shobha Bazar East, Kolkata - 700003, WB, India",Kolkata,CCU-N,100.56685969503359,2024-10-06 20:10:36.456197+00,2024-10-09 19:00:00.242+00,0.43626178648671965,4e9bfc76-4813-4e06-b306-bdfdd3df45a5
03e772aa-36a4-43df-9954-1f40ee2313a3,Eden Residency Puja Committee,22.483302,88.411073,"2813, Nayabad Ave, Daspara, Rangapara, Nayabad, Kolkata, West Bengal 700094",Kolkata,CCU-S,98.48860289864466,2024-10-06 20:10:36.842629+00,2024-10-10 09:05:40.634748+00,1.8395342003505517,1d43be6c-48af-432b-bfdf-f1080fac51dc
6cadf793-1b3b-4c4d-8070-8eb28ee67815,Dutta Bari,22.568145,88.360783,"Hidaram Banerjee Ln, Chandni Chowk East, Kolkata - 700013, WB, India",Kolkata,CCU-N,98.50808946201266,2024-10-06 20:10:36.557189+00,2024-10-09 19:00:00.242+00,0.5227272463543429,92ddde6b-2c26-4ea1-89ba-4d29592bde1e
3ac056cc-90c1-4aa1-ab16-64041fe9fc8a,Dilip Smriti Sangha,22.517796,88.34494,"Kalighat, Kolkata - 700026, WB, India",Kolkata,CCU-S,98.22299873188373,2024-10-06 20:10:35.699856+00,2024-10-10 02:04:01.923188+00,0.16764238069099321,182e71b3-4c47-4401-97de-a2a53e3e69d5
a458d3a7-6c8d-4e15-ba55-9b81f207991d,EC Block Residents Association,22.585853,88.409114,"North Corner of EC Park,, Sector 1, Kolkata, West Bengal",Kolkata,CCU-E,99.45878154279568,2024-10-06 20:10:36.639295+00,2024-10-10 08:07:42.65099+00,0.1856432825797177,e4f363f7-cb0b-49fa-bcf6-b8959c33ef53
d0a6d105-3c48-47ae-9a4b-0a9165dfd486,FC Block Sarbojonin Durgotsav Committee,22.580016,88.4095,"FC Block, Sector III, Salt Lake City, Kolkata, West Bengal 700106",Kolkata,CCU-E,3,2024-10-06 20:10:37.157322+00,2024-10-10 08:07:42.652991+00,0.801808262241115,e4f363f7-cb0b-49fa-bcf6-b8959c33ef53
6395f549-aa61-4ad8-b2f2-852ad5ea8794,Greenwood Nook,22.50556,88.399902,"Greenwood Nook, Kolkata, Kolkata District, India",Kolkata,CCU-S,100.66141305851536,2024-10-06 20:10:39.107521+00,2024-10-09 19:00:00.242+00,0.11716645679454907,fa6a52e4-311b-4436-a31c-b31e3033e72f
366f5b2b-16d8-4405-92cf-b25d4086e99e,Dum Dum Park Yubak Brinda,22.605386,88.417875,"A,, 413, Dum Dum Park, South Dum Dum, Kolkata, West Bengal 700055",Kolkata,CCU-N,20.21,2024-10-06 20:10:36.143905+00,2024-10-10 08:26:11.257054+00,1.6785104135153832,ec2f65d6-1fae-4116-bae4-f7b72c4d9399
4c106600-8623-4b16-9dce-fcadcc47e33a,Dharmatala Palli Bashi Brinda Club,22.605473,88.341941,"Salkia, 10, Dharmatala Rd, Salkia, Howrah, West Bengal 711106",Kolkata,HWH,96.20978541363057,2024-10-06 20:10:35.519301+00,2024-10-10 08:05:47.886051+00,2.341394238370314,290b340a-3bc4-44ae-b198-a2a63882c3af
5123720b-bc2a-4b58-af1a-fb8b84aed934,EE Block,22.5801459,88.4240305,"Sector V, Bidhannagar - 700091, WB, India",Kolkata,CCU-E,100.17690007787722,2024-10-06 20:10:36.744599+00,2024-10-09 19:00:00.242+00,0.6087338080849841,5a6b03f6-7801-4740-a9c0-5f81317e445d
e2823371-8c41-49df-89b2-2616b03d3873,Durbar Mahila Samanya Committee Durga Puja,22.591756,88.363819,"12/5, Nilmoni Mitra Street, Kolkata, West Bengal 700006",Kolkata,CCU-N,99.52045357703777,2024-10-06 20:10:36.358812+00,2024-10-10 08:10:06.166469+00,0.4984027702430851,4e9bfc76-4813-4e06-b306-bdfdd3df45a5
c1ef586b-8ef0-40ef-aaa5-e9e073b03d39,Dum Dum Tarun Dal,22.611732,88.418739,"Bangur, South Dumdum - 700101, WB, India",Kolkata,CCU-N,98.15851510634386,2024-10-06 20:10:36.207338+00,2024-10-10 08:17:43.891971+00,2.3896552666381474,ec2f65d6-1fae-4116-bae4-f7b72c4d9399
b217bab1-4021-453c-b3ce-9df8077a09c3,Thakurpukur Boys Club Durga Puja Committee,22.4606066,88.3003697,"18/2, Thakurpukur - Bibirhat - Bakhrahat - Raipur Rd, Pragati Park, Joka, Kolkata, West Bengal 700063, India",Kolkata,CCU-S,100,2024-10-10 09:10:04.14174+00,,0.842784415006972,c6045cd9-ca71-4480-a145-77cdde0e9afb
bee55028-6b98-4fda-a4a4-25e95c4d9fca,FC Block,22.5800034,88.409485,"Administrative Training Institute, 1st A Cross Road, Sector III, Bidhannagar - 700097, WB, India",Kolkata,CCU-E,98.00286765203907,2024-10-06 20:10:37.104633+00,2024-10-09 19:45:55.385593+00,0.8028602268930556,e4f363f7-cb0b-49fa-bcf6-b8959c33ef53
bf79b0c2-d928-43a6-b0fd-a3060035bc18,Dhakuria Sarbojanin Durgotsab,22.511363,88.378555,"5, Sarat Ghosh Garden Road, Dhakuria, Tanu Pukur, Kolkata, West Bengal",Kolkata,CCU-S,99.50188818181826,2024-10-06 20:10:35.38757+00,2024-10-10 09:13:09.358568+00,2.384168986722288,5517eb14-535a-4511-89e9-3e4a50f1ad8c
3d8bd4e7-958f-4f93-a8fa-7eaf01d48b17,Gandhinagar Bidhanmilon Somiti Puja Prangon,22.6886535,88.3832769,"Sodepur, Kamarhati - 700109, WB, India",Kolkata,CCU-N,96.63536652889414,2024-10-06 20:10:37.592715+00,2024-10-10 07:36:55.240045+00,3.9317226996004706,6c5c0678-590f-4aad-a523-f1b830d07ee6
dda61f55-1554-4d42-8414-c1e5cc070ff8,Garfa Kantapukur Sarbojanin Durgapuja,22.499306,88.384615,"67/A Garfa Gouranga Sarani67/A Garfa Gouranga Sarani, Kolkata-700078",Kolkata,CCU-S,100.64758765382514,2024-10-06 20:10:37.706405+00,2024-10-09 19:00:00.242+00,1.492030195858174,4584a420-4222-4f57-9280-2fa4df3c2ccd
1780d77d-65b1-4349-aab7-a5a1429c993d,Gopal Nagar Kalyan Sangha Durga Puja,22.501932,88.357504,"321, Prince Anwar Shah Rd, Madar Tala Colony, Tollygunge, Kolkata, West Bengal 700095",Kolkata,CCU-S,99.66,2024-10-06 20:10:38.808281+00,2024-10-10 07:54:18.729564+00,1.3605938152433863,a112df8b-2feb-4181-b07b-8656d6a63351
1de41bac-9b33-434d-83d8-9f59b8673fe6,"Golf Green Sarbojanin Durgotsav Committee Phase 3,4,7",22.492158,88.362218,"Phase III,IV & VII,, Golf Green, Kolkata, West Bengal 700095",Kolkata,CCU-S,98.7057423682112,2024-10-06 20:10:38.643534+00,2024-10-09 19:00:00.242+00,1.7916970538450798,ca775100-75de-4563-98dd-0da31eaaf828
b62f66f0-1881-4da3-8169-c8bdba8d3a02,Garia Amra Kajan Club,22.463407,88.384064,"Fartabad More, Garia Station Road, Opp. Harimati Devi Girls High School, P.O. Garia, Kolkata-700084",Kolkata,CCU-S,99.51291687380333,2024-10-06 20:10:37.731875+00,2024-10-10 09:05:40.63813+00,0.8319854758178522,3d094844-70ce-4bd2-bc01-67df8990dfcd
e21f9618-79d4-48de-b7a1-e328a138b8b8,Garia Pancha Durga,22.461643,88.378166,"Garia Mitali Sangha, Brahmapur, Kolkata - 700084, WB, India",Kolkata,CCU-S,100.44741327106661,2024-10-06 20:10:37.779754+00,2024-10-09 19:00:00.242+00,1.468760089355839,3d094844-70ce-4bd2-bc01-67df8990dfcd
fef9bf1d-0e67-4083-a29f-528ce1e4e1ce,FE Block Residents Association,22.579946,88.414879,"FE Block, Sector III, Salt Lake City, Kolkata, West Bengal 700106",Kolkata,CCU-E,4.5,2024-10-06 20:10:37.292706+00,2024-10-10 08:07:42.657146+00,0.9923769653949124,16187aae-7d9b-4140-a6bd-5cef445960b8
b1b8c809-8714-4695-8731-a9c01fa074c5,Golaghata Sammilani,22.597297,88.399173,"Golaghata Rd, Sreebhumi, Lake Town, Kolkata, West Bengal 700048",Kolkata,CCU-N,99.08657947113494,2024-10-06 20:10:38.490551+00,2024-10-09 19:00:00.242+00,1.446223831601588,e4f363f7-cb0b-49fa-bcf6-b8959c33ef53
80c9e769-284b-40de-b4bb-fe5b0da23ab1,Gouriberia,22.594547,88.379227,"Gouribari Sarbojanin, Ward 12, Kolkata - 700004, WB, India",Kolkata,CCU-N,98.73287119847375,2024-10-06 20:10:38.937307+00,2024-10-09 19:00:00.242+00,1.015287968313383,994d8f80-908e-4ea9-a33b-4f83326a0460
17ab5766-f813-4547-98a5-79ff736594d2,Godrej Prakriti Durga Puja,22.7082865,88.3793567,"Sodepur, Khardaha - 700115, WB, India",Kolkata,CCU-N,96.64011643595704,2024-10-06 20:10:38.408133+00,2024-10-10 06:11:46.44538+00,6.0889668363176686,6c5c0678-590f-4aad-a523-f1b830d07ee6
ca8c2d98-02db-4881-bf70-00405d1245b4,Ghola C Block Adi Sarobojonin,22.6967172,88.4038785,"Panihati - 700111, WB, India",Kolkata,CCU-N,94.3271954479178,2024-10-06 20:10:38.103774+00,2024-10-10 09:31:10.07882+00,5.4446665092586235,6c5c0678-590f-4aad-a523-f1b830d07ee6
cc996a9b-d6bb-4cbe-b01b-8b65c947df45,Garia Sarbojanin Durgotsab Committee,22.465981,88.403179,"Garia Station Rd, Tentulberia, Nabagram, Panchpota, Kolkata, West Bengal 700084",Kolkata,CCU-S,100.50863560049915,2024-10-06 20:10:37.863651+00,2024-10-09 19:00:00.242+00,0.8460065162553315,1d43be6c-48af-432b-bfdf-f1080fac51dc
8894643b-97f3-4cb9-a983-1461ffb6d3fa,GD Block,22.5770958,88.4167583,"268, 1st Cross Road, Sector III, Bidhannagar - 700106, WB, India",Kolkata,CCU-E,104.6662759884451,2024-10-06 20:10:37.475855+00,2024-10-10 09:19:57.866492+00,1.147576635358616,16187aae-7d9b-4140-a6bd-5cef445960b8
31e99624-cffb-4b49-a625-75b6949f5f74,Garia Sabuj Dal,22.469654,88.381599,"Kolkata - 700086, WB, India",Kolkata,CCU-S,100.55022472757739,2024-10-06 20:10:37.796193+00,2024-10-09 19:00:00.242+00,1.1128904377653674,3d094844-70ce-4bd2-bc01-67df8990dfcd
f8e2ca3e-114c-47a0-9aa7-aa5759d59a2f,Goal Math,22.526427,88.349862,"Bakul Bagan Road, Bhowanipore, Kolkata - 700025, WB, India",Kolkata,CCU-S,93.42749356456343,2024-10-06 20:10:38.355955+00,2024-10-10 09:31:57.267128+00,0.42187729762939835,491e3fa0-696f-4194-b3c1-4c60a7e1f92d
019e150b-0eb9-4603-8b4b-2d1ca30ae2f9,Gorbhobani Club Durga Puja,22.6975874,88.3659979,"Sodepur, Kamarhati - 700114, WB, India",Kolkata,CCU-N,0,2024-10-06 20:10:38.838859+00,2024-10-10 06:11:46.447104+00,4.85553724651416,a43fc13b-5107-428b-a4fe-96ffb2c58f71
ca29d97d-70cc-4eef-81c1-40c127cce062,GC Block,22.5785377,88.4119096,"111, 1st Cross Road, Sector III, Bidhannagar - 700097, WB, India",Kolkata,CCU-E,4,2024-10-06 20:10:37.457254+00,2024-10-09 19:00:00.242+00,1.0351333953487891,e4f363f7-cb0b-49fa-bcf6-b8959c33ef53
ac71cd58-f05d-4a11-9edc-6e8e655b5102,Falguni Sangha Durga Puja,22.522228,88.365877,"Falguni Sangha, Ekdalia, Ballygunge, Kolkata, West Bengal 700019",Kolkata,CCU-S,30.65,2024-10-06 20:10:37.368977+00,2024-10-10 09:26:22.211875+00,2.0042133281295658,491e3fa0-696f-4194-b3c1-4c60a7e1f92d
63cdb271-520f-4e54-9c37-82c3d8b1a809,Ghola Agradut Club,22.6957052,88.3965437,"Sodepur Road, Sodepur, Panihati - 700111, WB, India",Kolkata,CCU-N,0,2024-10-06 20:10:38.03782+00,2024-10-10 06:11:46.441221+00,5.02803696586657,6c5c0678-590f-4aad-a523-f1b830d07ee6
e828c8c3-892c-445d-8dfd-273a7b64c45b,Golfgreen Phase 2,22.492256,88.360809,"Sarkar, W2A(R) 9, Prince Golam Hossain Shah Road, Bikramgarh, Kolkata - 700095, WB, India",Kolkata,CCU-S,100.63669829191211,2024-10-06 20:10:38.749751+00,2024-10-09 19:00:00.242+00,1.6470963095933158,ca775100-75de-4563-98dd-0da31eaaf828
aaa26eea-18c4-4fe6-b19b-379e8b7ca2de,Green Field City Welfare Committee,22.495222,88.273668,"Greenfield City, Behala Mauza, Kolkata, West Bengal 700140",Kolkata,CCU-S,100.66290934464759,2024-10-06 20:10:39.040943+00,2024-10-09 19:00:00.242+00,4.173240508449668,548cfbb1-4ff7-4f9c-ab78-537c78920ee3
1eddcc06-58c0-4757-bdeb-9c942832fcb4,Udayan Sangha,22.4737357,88.3644822,"Naktala, Garia, Kolkata, West Bengal 700047, India",Kolkata,CCU-S,100,2024-10-10 09:10:04.196572+00,,0.3718195881921592,4db37870-5612-4412-96e0-177887986262
c44aca5e-9941-4edc-86a5-c38e17aed77d,Baigacchi Tarun dal,22.66197,88.280598,"Baigachi Tarun Dal, M76J+R6W, hat, Jagadishpur, Baigachhi, West Bengal 711114",Kolkata,CCU-N,98.05826761927845,2024-10-08 15:19:01.997862+00,2024-10-09 19:00:00.242+00,8.57606872682145,a43fc13b-5107-428b-a4fe-96ffb2c58f71
4d168f7f-10de-4f1c-9dd9-65b5337ff997,Dum Dum Park Tarun Sangha Sarbojanin Durgotsav,22.610723,88.413628,"Tank No. 3, Dum Dum Park Road, South Dum Dum, Kolkata- 700055, West Bengal",Kolkata,CCU-N,95.32179262873505,2024-10-06 20:10:36.09096+00,2024-10-10 08:26:11.262485+00,2.2648149794906804,ec2f65d6-1fae-4116-bae4-f7b72c4d9399
6d6f84c3-5949-4467-8775-d83cf5cfd8d8,Golden Arrow Club,22.516494,88.347673,"Tara Road, Lake Market, Kalighat, Kolkata, West Bengal 700029",Kolkata,CCU-S,99.24651038477793,2024-10-06 20:10:38.519059+00,2024-10-09 19:00:00.242+00,0.17243730876425215,182e71b3-4c47-4401-97de-a2a53e3e69d5
0ef2b2e0-c6ad-4886-a383-3cfd1a4ae6ec,Green Avenue Sarbojanin,22.494051,88.380264,"Jadavpur, Kolkata - 700075, WB, India",Kolkata,CCU-S,7.5,2024-10-06 20:10:38.994531+00,2024-10-09 19:00:00.242+00,1.6464103590306687,adb0c2c5-908b-4693-9855-72c4b5b2f462
398c721d-ad5c-43c8-a581-9dfc99c1430e,Ghas Bagan,22.591923,88.343468,"Howrah Maidan, Howrah - 711101, WB, India",Kolkata,HWH,96.10167374769853,2024-10-06 20:10:38.011419+00,2024-10-10 09:31:57.262865+00,0.8819236460650726,290b340a-3bc4-44ae-b198-a2a63882c3af
7a29017d-83ef-4835-b7ce-bdc1b4d77b4e,FE Block,22.5815762,88.4179705,"158, Bidhannagar - 700135, WB, India",Kolkata,CCU-E,22,2024-10-06 20:10:37.244861+00,2024-10-09 19:00:00.242+00,0.6514028974631695,16187aae-7d9b-4140-a6bd-5cef445960b8
3f3ddd38-46e9-4675-a232-c6228fee80a9,Golf Green Phase II Durga Puja,22.495023,88.363044,"Lig 1/2, Golf Green, Kolkata, West Bengal 700095",Kolkata,CCU-S,100.66365748771369,2024-10-06 20:10:38.606423+00,2024-10-09 19:00:00.242+00,1.8540504879097897,ca775100-75de-4563-98dd-0da31eaaf828
a6e889a5-3568-4231-b37f-e1fed3bf9e72,Golfgreen Phase 1,22.493393,88.362274,"Sarkar, W2A(R) 9, Prince Golam Hossain Shah Road, Bikramgarh, Kolkata - 700095, WB, India",Kolkata,CCU-S,1,2024-10-06 20:10:38.717677+00,2024-10-09 19:00:00.242+00,1.780772904790078,ca775100-75de-4563-98dd-0da31eaaf828
36897420-0d20-4833-928f-5dd54d8a0b24,Gandhi Colony Avijan Club,22.523005,88.343971,"4/208, Gandhi Colony, Netaji Nagar, Kolkata, West Bengal 700040",Kolkata,CCU-S,98.78945418730706,2024-10-06 20:10:37.554006+00,2024-10-09 19:00:00.242+00,0.29398439954481187,491e3fa0-696f-4194-b3c1-4c60a7e1f92d
450f1a1a-f0e0-40ac-9dfd-e504dbd0ab55,FD Block Sarbojanin Puja Committee,22.583649,88.41243,"FD-63/A, FD Block, Sector III, Salt Lake City, Kolkata, West Bengal 700106",Kolkata,CCU-E,98.54725284597416,2024-10-06 20:10:37.200436+00,2024-10-10 08:07:42.654794+00,0.6027558807964052,e4f363f7-cb0b-49fa-bcf6-b8959c33ef53
d2f1edba-a1d2-491e-8c22-b5f85a8f9ada,Garia Sreerampur Kalyan Samity,22.466888,88.38044,"Kalyan Sangha, Garia Main Road, Kolkata - 700084, WB, India",Kolkata,CCU-S,97.32399817603168,2024-10-06 20:10:37.890525+00,2024-10-10 08:08:28.507826+00,1.158433778110229,3d094844-70ce-4bd2-bc01-67df8990dfcd
0b043de6-a389-4020-886b-a6e020037a6d,Ghosh Para Kali Tala,22.712405,88.3937218,"Khardaha - 700112, WB, India",Kolkata,CCU-N,3.5,2024-10-06 20:10:38.13852+00,2024-10-09 19:00:00.242+00,6.721631036367541,6c5c0678-590f-4aad-a523-f1b830d07ee6
c0593698-6d50-4e9c-bbe1-b95b7096ab83,Haritaki Bagan,22.586396,88.372092,"Sealdah North, Kolkata - 700006, WB, India",Kolkata,CCU-N,95.22079771494404,2024-10-06 20:10:40.140617+00,2024-10-10 09:31:57.271723+00,0.9286429304241871,ad97440c-ef55-499a-bdb7-12bf12f32786
cd378d4a-e58b-41ff-aefe-4182c313f6db,Harish Park Puja,22.530655,88.343681,"Netaji Eye Hospital, 28, Harish Mukherjee Road, Bhowanipore, Kolkata - 700025, WB, India",Kolkata,CCU-S,100.64030074036121,2024-10-06 20:10:40.068893+00,2024-10-09 19:00:00.242+00,0.3882172705691301,e86fb29e-7d2c-457c-82d5-1783c667b846
353d1710-4db8-4f7f-83af-aebe1f94a41e,Howrah Anusilan Samity,22.576873,88.325253,"64 63, Gopal Banerjee Ln, Naora, Shibpur, Howrah, West Bengal 711102",Kolkata,HWH,100.6393167926435,2024-10-06 20:10:40.918905+00,2024-10-09 19:00:00.242+00,0.9779754122034832,ba2d2d43-3fe7-4320-bb41-34bbc60b4420
df0f448b-f95d-4b26-aa18-652669a9d6db,Harijankalyan Sangh Sarbojanin,22.524235,88.361387,"6, Garcha 1st Ln, Dover Terrace, Ballygunge, Kolkata, West Bengal 700019",Kolkata,CCU-S,99.58236832089503,2024-10-06 20:10:39.894623+00,2024-10-10 08:08:28.511221+00,1.5302188443063138,491e3fa0-696f-4194-b3c1-4c60a7e1f92d
b702c6c1-6883-45bc-af2a-60564d9c5551,Hindusthan Park Tarun Sangha,22.518062,88.361171,"8/1c, Hindustan Park Road, Hindustan Park, Gariahat, Kolkata, West Bengal 700029",Kolkata,CCU-S,59.75,2024-10-06 20:10:40.843737+00,2024-10-10 09:17:39.390916+00,1.565894881721178,182e71b3-4c47-4401-97de-a2a53e3e69d5
04d6bc6d-198e-463f-8dd3-8d0ee81aa6ec,Halasibagan,22.589843,88.377843,"Nirode Behari Mullick Road, Simla, Kolkata - 700006, WB, India",Kolkata,CCU-N,93.28718327273194,2024-10-06 20:10:39.388221+00,2024-10-10 09:31:57.273102+00,1.3848903771964636,994d8f80-908e-4ea9-a33b-4f83326a0460
ffb0000c-7cfb-4d82-88ab-d9a086470ddd,Hindusthan Park Purbachal Club,22.517773,88.363944,"Hindusthan Park, Hindustan Park, Gariahat, Kolkata, West Bengal 700029",Kolkata,CCU-S,95.4720672306751,2024-10-06 20:10:40.740881+00,2024-10-10 09:17:39.380547+00,1.847075689644414,182e71b3-4c47-4401-97de-a2a53e3e69d5
31326d4b-3956-4d46-b04d-0eb6609a26d7,EC Market,22.5852613,88.4092955,"EC Market, Bidhannagar - 700097, WB, India",Kolkata,CCU-E,100.6455829168892,2024-10-06 20:10:36.718416+00,2024-10-09 19:00:00.242+00,0.2483399079002046,e4f363f7-cb0b-49fa-bcf6-b8959c33ef53
adb1d459-6c4d-49c4-8c8b-d5b08aede41e,HB Block,22.5741049,88.4155462,"Sector III, Bidhannagar - 700106, WB, India",Kolkata,CCU-E,97.77251060717964,2024-10-06 20:10:39.302715+00,2024-10-09 19:00:00.242+00,1.2872887827891994,d4e43d7a-5bf7-42fd-91cd-2361c78e56f3
66cd7e3e-75ea-4ed8-99c0-6b6c0c0cea47,Howrah Jatiya Sevadal Club,22.588634,88.328358,"40/2, IR Belilious Ln, Kadam Tala, Howrah, West Bengal 711101",Kolkata,HWH,98.81709975719365,2024-10-06 20:10:40.993075+00,2024-10-09 19:00:00.242+00,0.8780809103092113,ba2d2d43-3fe7-4320-bb41-34bbc60b4420
ecb21492-c2d2-4848-9ca4-c284810b1622,Hindustan Pally Durga Puja [Tollygunge Place Club],22.499973,88.346706,"Russa Rd South 2nd Ln, Netajinagar, Rajendra Prasad Colony, Tollygunge, Kolkata, West Bengal 700033",Kolkata,CCU-S,61.769999999999996,2024-10-06 20:10:40.643169+00,2024-10-10 09:17:39.367081+00,0.6098349877488585,ca775100-75de-4563-98dd-0da31eaaf828
